{
  "UpdateTime": "2020-04-08T00:02:17+08:00",
  "UpdateInterval": 1500,
  "SrcUpdateTime": "2020-04-08T00:00:01+08:00",
  "SrcUpdateInterval": -1,
  "AuthorityCode": "TRA",
  "Stations": [
    {
      "StationUID": "TRA-6030",
      "StationID": "6030",
      "StationName": {
        "Zh_tw": "瑞源",
        "En": "Ruiyuan"
      },
      "StationPosition": {
        "PositionLat": 22.95613,
        "PositionLon": 121.15902
      },
      "StationAddress": "95543臺東縣鹿野鄉瑞源村瑞景路一段 336 巷 8 號 之 1",
      "StationPhone": "089-580159",
      "StationClass": "3",
      "StationURL": "http://tip.railway.gov.tw/tra-tip-web/tip/tip00H/tipH41/viewStaInfo/6030"
    },
    {
      "StationUID": "TRA-2110",
      "StationID": "2110",
      "StationName": {
        "Zh_tw": "談文",
        "En": "Tanwen"
      },
      "StationPosition": {
        "PositionLat": 24.65641,
        "PositionLon": 120.85825
      },
      "StationAddress": "36143苗栗縣造橋鄉談文村仁愛路 29 號",
      "StationPhone": "037-472030",
      "StationClass": "5",
      "StationURL": "http://tip.railway.gov.tw/tra-tip-web/tip/tip00H/tipH41/viewStaInfo/2110"
    },
    {
      "StationUID": "TRA-1202",
      "StationID": "1202",
      "StationName": {
        "Zh_tw": "榮華",
        "En": "Ronghua"
      },
      "StationPosition": {
        "PositionLat": 24.74851,
        "PositionLon": 121.08296
      },
      "StationAddress": "310新竹縣竹東鎮仁愛里北興路 (無站房)",
      "StationPhone": "03-5962042",
      "StationClass": "5",
      "StationURL": "http://tip.railway.gov.tw/tra-tip-web/tip/tip00H/tipH41/viewStaInfo/1202"
    },
    {
      "StationUID": "TRA-3170",
      "StationID": "3170",
      "StationName": {
        "Zh_tw": "南勢",
        "En": "Nanshi"
      },
      "StationPosition": {
        "PositionLat": 24.52234,
        "PositionLon": 120.79157
      },
      "StationAddress": "36063苗栗縣苗栗市新英里南勢 39 號",
      "StationPhone": "037-260031",
      "StationClass": "5",
      "StationURL": "http://tip.railway.gov.tw/tra-tip-web/tip/tip00H/tipH41/viewStaInfo/3170"
    },
    {
      "StationUID": "TRA-1010",
      "StationID": "1010",
      "StationName": {
        "Zh_tw": "萬華",
        "En": "Wanhua"
      },
      "StationPosition": {
        "PositionLat": 25.03352,
        "PositionLon": 121.49991
      },
      "StationAddress": "10855臺北市萬華區富福里康定路 382 號",
      "StationPhone": "02-23020481",
      "StationClass": "1",
      "StationURL": "http://tip.railway.gov.tw/tra-tip-web/tip/tip00H/tipH41/viewStaInfo/1010"
    },
    {
      "StationUID": "TRA-2150",
      "StationID": "2150",
      "StationName": {
        "Zh_tw": "白沙屯",
        "En": "Baishatun"
      },
      "StationPosition": {
        "PositionLat": 24.56481,
        "PositionLon": 120.70824
      },
      "StationAddress": "35742苗栗縣通霄鎮白西里白西 131 號",
      "StationPhone": "037-793066",
      "StationClass": "3",
      "StationURL": "http://tip.railway.gov.tw/tra-tip-web/tip/tip00H/tipH41/viewStaInfo/2150"
    },
    {
      "StationUID": "TRA-3210",
      "StationID": "3210",
      "StationName": {
        "Zh_tw": "泰安",
        "En": "Tai'an"
      },
      "StationPosition": {
        "PositionLat": 24.33146,
        "PositionLon": 120.74181
      },
      "StationAddress": "42156臺中市后里區泰安里安眉路 37 之 12 號",
      "StationPhone": "04-25586540",
      "StationClass": "4",
      "StationURL": "http://tip.railway.gov.tw/tra-tip-web/tip/tip00H/tipH41/viewStaInfo/3210"
    },
    {
      "StationUID": "TRA-7336",
      "StationID": "7336",
      "StationName": {
        "Zh_tw": "菁桐",
        "En": "Jingtong"
      },
      "StationPosition": {
        "PositionLat": 25.02384,
        "PositionLon": 121.72394
      },
      "StationAddress": "22642新北市平溪區菁桐里菁桐街 52 號",
      "StationPhone": "02-24972033",
      "StationClass": "4",
      "StationURL": "http://tip.railway.gov.tw/tra-tip-web/tip/tip00H/tipH41/viewStaInfo/7336"
    },
    {
      "StationUID": "TRA-1170",
      "StationID": "1170",
      "StationName": {
        "Zh_tw": "新豐",
        "En": "Xinfeng"
      },
      "StationPosition": {
        "PositionLat": 24.86961,
        "PositionLon": 120.99654
      },
      "StationAddress": "30442新竹縣新豐鄉山崎村新興路 202 號",
      "StationPhone": "03-5596314",
      "StationClass": "3",
      "StationURL": "http://tip.railway.gov.tw/tra-tip-web/tip/tip00H/tipH41/viewStaInfo/1170"
    },
    {
      "StationUID": "TRA-1120",
      "StationID": "1120",
      "StationName": {
        "Zh_tw": "楊梅",
        "En": "Yangmei"
      },
      "StationPosition": {
        "PositionLat": 24.91391,
        "PositionLon": 121.14634
      },
      "StationAddress": "32643桃園市楊梅區楊梅里大成路 256 號",
      "StationPhone": "03-4782893",
      "StationClass": "3",
      "StationURL": "http://tip.railway.gov.tw/tra-tip-web/tip/tip00H/tipH41/viewStaInfo/1120"
    },
    {
      "StationUID": "TRA-3360",
      "StationID": "3360",
      "StationName": {
        "Zh_tw": "彰化",
        "En": "Changhua"
      },
      "StationPosition": {
        "PositionLat": 24.08142,
        "PositionLon": 120.53835
      },
      "StationAddress": "50043彰化縣彰化市長樂里三民路 1 號",
      "StationPhone": "04-7274218#11",
      "StationClass": "1",
      "StationURL": "http://tip.railway.gov.tw/tra-tip-web/tip/tip00H/tipH41/viewStaInfo/3360"
    },
    {
      "StationUID": "TRA-4060",
      "StationID": "4060",
      "StationName": {
        "Zh_tw": "民雄",
        "En": "Minxiong"
      },
      "StationPosition": {
        "PositionLat": 23.55502,
        "PositionLon": 120.43136
      },
      "StationAddress": "62142嘉義縣民雄鄉東榮村和平路 2 號",
      "StationPhone": "05-2264272",
      "StationClass": "3",
      "StationURL": "http://tip.railway.gov.tw/tra-tip-web/tip/tip00H/tipH41/viewStaInfo/4060"
    },
    {
      "StationUID": "TRA-5060",
      "StationID": "5060",
      "StationName": {
        "Zh_tw": "崁頂",
        "En": "Kanding"
      },
      "StationPosition": {
        "PositionLat": 22.51311,
        "PositionLon": 120.51481
      },
      "StationAddress": "92442屏東縣崁頂鄉崁頂村中正路 122 號",
      "StationPhone": "08-7882739",
      "StationClass": "5",
      "StationURL": "http://tip.railway.gov.tw/tra-tip-web/tip/tip00H/tipH41/viewStaInfo/5060"
    },
    {
      "StationUID": "TRA-5190",
      "StationID": "5190",
      "StationName": {
        "Zh_tw": "大武",
        "En": "Dawu"
      },
      "StationPosition": {
        "PositionLat": 22.36537,
        "PositionLon": 120.90091
      },
      "StationAddress": "96541臺東縣大武鄉大鳥村和平部落 33 號",
      "StationPhone": "089-792056",
      "StationClass": "3",
      "StationURL": "http://tip.railway.gov.tw/tra-tip-web/tip/tip00H/tipH41/viewStaInfo/5190"
    },
    {
      "StationUID": "TRA-1160",
      "StationID": "1160",
      "StationName": {
        "Zh_tw": "湖口",
        "En": "Hukou"
      },
      "StationPosition": {
        "PositionLat": 24.90292,
        "PositionLon": 121.04412
      },
      "StationAddress": "30342新竹縣湖口鄉仁勢村中山路二段 121 號",
      "StationPhone": "03-5992192",
      "StationClass": "3",
      "StationURL": "http://tip.railway.gov.tw/tra-tip-web/tip/tip00H/tipH41/viewStaInfo/1160"
    },
    {
      "StationUID": "TRA-3390",
      "StationID": "3390",
      "StationName": {
        "Zh_tw": "員林",
        "En": "Yuanlin"
      },
      "StationPosition": {
        "PositionLat": 23.95933,
        "PositionLon": 120.56995
      },
      "StationAddress": "51041彰化縣員林市和平里民權街 55 號",
      "StationPhone": "04-8320544",
      "StationClass": "1",
      "StationURL": "http://tip.railway.gov.tw/tra-tip-web/tip/tip00H/tipH41/viewStaInfo/3390"
    },
    {
      "StationUID": "TRA-3150",
      "StationID": "3150",
      "StationName": {
        "Zh_tw": "豐富",
        "En": "Fengfu"
      },
      "StationPosition": {
        "PositionLat": 24.60131,
        "PositionLon": 120.82357
      },
      "StationAddress": "35648苗栗縣後龍鎮校椅里高鐵一路 66 號",
      "StationPhone": "037-726700",
      "StationClass": "4",
      "StationURL": "http://tip.railway.gov.tw/tra-tip-web/tip/tip00H/tipH41/viewStaInfo/3150"
    },
    {
      "StationUID": "TRA-1180",
      "StationID": "1180",
      "StationName": {
        "Zh_tw": "竹北",
        "En": "Zhubei"
      },
      "StationPosition": {
        "PositionLat": 24.83892,
        "PositionLon": 121.00936
      },
      "StationAddress": "30265新竹縣竹北市竹義里和平街 59 號",
      "StationPhone": "03-5552024",
      "StationClass": "3",
      "StationURL": "http://tip.railway.gov.tw/tra-tip-web/tip/tip00H/tipH41/viewStaInfo/1180"
    },
    {
      "StationUID": "TRA-7361",
      "StationID": "7361",
      "StationName": {
        "Zh_tw": "海科館",
        "En": "Haikeguan"
      },
      "StationPosition": {
        "PositionLat": 25.13768,
        "PositionLon": 121.80003
      },
      "StationAddress": "202基隆市中正區長潭里",
      "StationPhone": "02-24972033",
      "StationClass": "5",
      "StationURL": "http://tip.railway.gov.tw/tra-tip-web/tip/tip00H/tipH41/viewStaInfo/7361"
    },
    {
      "StationUID": "TRA-4070",
      "StationID": "4070",
      "StationName": {
        "Zh_tw": "嘉北",
        "En": "Jiabei"
      },
      "StationPosition": {
        "PositionLat": 23.49985,
        "PositionLon": 120.44852
      },
      "StationAddress": "60079嘉義市 東區後湖里保建街 110 號",
      "StationPhone": "05-2334584",
      "StationClass": "4",
      "StationURL": "http://tip.railway.gov.tw/tra-tip-web/tip/tip00H/tipH41/viewStaInfo/4070"
    },
    {
      "StationUID": "TRA-4460",
      "StationID": "4460",
      "StationName": {
        "Zh_tw": "九曲堂",
        "En": "Jiuqutang"
      },
      "StationPosition": {
        "PositionLat": 22.65658,
        "PositionLon": 120.42072
      },
      "StationAddress": "84041高雄市大樹區久堂里久堂路鐵路巷 15 號",
      "StationPhone": "07-6512020",
      "StationClass": "3",
      "StationURL": "http://tip.railway.gov.tw/tra-tip-web/tip/tip00H/tipH41/viewStaInfo/4460"
    },
    {
      "StationUID": "TRA-4340",
      "StationID": "4340",
      "StationName": {
        "Zh_tw": "新左營",
        "En": "Xinzuoying"
      },
      "StationPosition": {
        "PositionLat": 22.68721,
        "PositionLon": 120.30721
      },
      "StationAddress": "81354高雄市左營區尾北里站前北路 1 號",
      "StationPhone": "07-5887825",
      "StationClass": "1",
      "StationURL": "http://tip.railway.gov.tw/tra-tip-web/tip/tip00H/tipH41/viewStaInfo/4340"
    },
    {
      "StationUID": "TRA-3490",
      "StationID": "3490",
      "StationName": {
        "Zh_tw": "石龜",
        "En": "Shigui"
      },
      "StationPosition": {
        "PositionLat": 23.63951,
        "PositionLon": 120.47106
      },
      "StationAddress": "630雲林縣斗南鎮石龜里",
      "StationPhone": "05-5972039",
      "StationClass": "5",
      "StationURL": "http://tip.railway.gov.tw/tra-tip-web/tip/tip00H/tipH41/viewStaInfo/3490"
    },
    {
      "StationUID": "TRA-7300",
      "StationID": "7300",
      "StationName": {
        "Zh_tw": "貢寮",
        "En": "Gongliao"
      },
      "StationPosition": {
        "PositionLat": 25.02209,
        "PositionLon": 121.90867
      },
      "StationAddress": "22843新北市貢寮區貢寮里朝陽街 33 號",
      "StationPhone": "02-24941500",
      "StationClass": "4",
      "StationURL": "http://tip.railway.gov.tw/tra-tip-web/tip/tip00H/tipH41/viewStaInfo/7300"
    },
    {
      "StationUID": "TRA-3140",
      "StationID": "3140",
      "StationName": {
        "Zh_tw": "造橋",
        "En": "Zaoqiao"
      },
      "StationPosition": {
        "PositionLat": 24.64206,
        "PositionLon": 120.86719
      },
      "StationAddress": "36144苗栗縣造橋鄉造橋村平仁路 54 號",
      "StationPhone": "037-472030",
      "StationClass": "5",
      "StationURL": "http://tip.railway.gov.tw/tra-tip-web/tip/tip00H/tipH41/viewStaInfo/3140"
    },
    {
      "StationUID": "TRA-5090",
      "StationID": "5090",
      "StationName": {
        "Zh_tw": "林邊",
        "En": "Linbian"
      },
      "StationPosition": {
        "PositionLat": 22.43141,
        "PositionLon": 120.51538
      },
      "StationAddress": "92744屏東縣林邊鄉仁和村仁愛路 33 號",
      "StationPhone": "08-8751475",
      "StationClass": "3",
      "StationURL": "http://tip.railway.gov.tw/tra-tip-web/tip/tip00H/tipH41/viewStaInfo/5090"
    },
    {
      "StationUID": "TRA-3470",
      "StationID": "3470",
      "StationName": {
        "Zh_tw": "斗六",
        "En": "Douliu"
      },
      "StationPosition": {
        "PositionLat": 23.71157,
        "PositionLon": 120.54117
      },
      "StationAddress": "64050雲林縣斗六市信義里民生路 187 號",
      "StationPhone": "05-5332900",
      "StationClass": "1",
      "StationURL": "http://tip.railway.gov.tw/tra-tip-web/tip/tip00H/tipH41/viewStaInfo/3470"
    },
    {
      "StationUID": "TRA-2130",
      "StationID": "2130",
      "StationName": {
        "Zh_tw": "後龍",
        "En": "Houlong"
      },
      "StationPosition": {
        "PositionLat": 24.61621,
        "PositionLon": 120.78731
      },
      "StationAddress": "35641苗栗縣後龍鎮北龍里車站街 127-2 號",
      "StationPhone": "037-728616",
      "StationClass": "3",
      "StationURL": "http://tip.railway.gov.tw/tra-tip-web/tip/tip00H/tipH41/viewStaInfo/2130"
    },
    {
      "StationUID": "TRA-5080",
      "StationID": "5080",
      "StationName": {
        "Zh_tw": "鎮安",
        "En": "Zhen'an"
      },
      "StationPosition": {
        "PositionLat": 22.45794,
        "PositionLon": 120.51151
      },
      "StationAddress": "92748屏東縣林邊鄉鎮安村永和路 4 號",
      "StationPhone": "08-8642942",
      "StationClass": "5",
      "StationURL": "http://tip.railway.gov.tw/tra-tip-web/tip/tip00H/tipH41/viewStaInfo/5080"
    },
    {
      "StationUID": "TRA-3480",
      "StationID": "3480",
      "StationName": {
        "Zh_tw": "斗南",
        "En": "Dounan"
      },
      "StationPosition": {
        "PositionLat": 23.67302,
        "PositionLon": 120.48082
      },
      "StationAddress": "63042雲林縣斗南鎮南昌里中山路 2 號",
      "StationPhone": "05-5972039",
      "StationClass": "2",
      "StationURL": "http://tip.railway.gov.tw/tra-tip-web/tip/tip00H/tipH41/viewStaInfo/3480"
    },
    {
      "StationUID": "TRA-5130",
      "StationID": "5130",
      "StationName": {
        "Zh_tw": "加祿",
        "En": "Jialu"
      },
      "StationPosition": {
        "PositionLat": 22.33085,
        "PositionLon": 120.62445
      },
      "StationAddress": "94145屏東縣枋山鄉加祿村會社 53 號",
      "StationPhone": "08-8720791",
      "StationClass": "3",
      "StationURL": "http://tip.railway.gov.tw/tra-tip-web/tip/tip00H/tipH41/viewStaInfo/5130"
    },
    {
      "StationUID": "TRA-4470",
      "StationID": "4470",
      "StationName": {
        "Zh_tw": "六塊厝",
        "En": "Liukuaicuo"
      },
      "StationPosition": {
        "PositionLat": 22.66619,
        "PositionLon": 120.46491
      },
      "StationAddress": "90082屏東縣屏東市長安里光復路 392 號",
      "StationPhone": "08-7515140",
      "StationClass": "5",
      "StationURL": "http://tip.railway.gov.tw/tra-tip-web/tip/tip00H/tipH41/viewStaInfo/4470"
    },
    {
      "StationUID": "TRA-3431",
      "StationID": "3431",
      "StationName": {
        "Zh_tw": "源泉",
        "En": "Yuanquan"
      },
      "StationPosition": {
        "PositionLat": 23.79846,
        "PositionLon": 120.64208
      },
      "StationAddress": "530彰化縣二水鄉合興村英義路 (無站房)",
      "StationPhone": "04-8792027",
      "StationClass": "5",
      "StationURL": "http://tip.railway.gov.tw/tra-tip-web/tip/tip00H/tipH41/viewStaInfo/3431"
    },
    {
      "StationUID": "TRA-6220",
      "StationID": "6220",
      "StationName": {
        "Zh_tw": "壽豐",
        "En": "Shoufeng"
      },
      "StationPosition": {
        "PositionLat": 23.86901,
        "PositionLon": 121.51064
      },
      "StationAddress": "97442花蓮縣壽豐鄉壽豐村壽山路 1 號",
      "StationPhone": "03-8653706",
      "StationClass": "3",
      "StationURL": "http://tip.railway.gov.tw/tra-tip-web/tip/tip00H/tipH41/viewStaInfo/6220"
    },
    {
      "StationUID": "TRA-1080",
      "StationID": "1080",
      "StationName": {
        "Zh_tw": "桃園",
        "En": "Taoyuan"
      },
      "StationPosition": {
        "PositionLat": 24.98935,
        "PositionLon": 121.31445
      },
      "StationAddress": "33041桃園市桃園區武陵里中正路 1 號",
      "StationPhone": "03-3767050",
      "StationClass": "1",
      "StationURL": "http://tip.railway.gov.tw/tra-tip-web/tip/tip00H/tipH41/viewStaInfo/1080"
    },
    {
      "StationUID": "TRA-7240",
      "StationID": "7240",
      "StationName": {
        "Zh_tw": "外澳",
        "En": "Wai'ao"
      },
      "StationPosition": {
        "PositionLat": 24.88371,
        "PositionLon": 121.84575
      },
      "StationAddress": "26144宜蘭縣頭城鎮外澳里濱海路二段 217 號",
      "StationPhone": "03-9771429",
      "StationClass": "5",
      "StationURL": "http://tip.railway.gov.tw/tra-tip-web/tip/tip00H/tipH41/viewStaInfo/7240"
    },
    {
      "StationUID": "TRA-3270",
      "StationID": "3270",
      "StationName": {
        "Zh_tw": "松竹",
        "En": "Songzhu"
      },
      "StationPosition": {
        "PositionLat": 24.17983,
        "PositionLon": 120.70197
      },
      "StationAddress": "406臺中市北屯區舊社里松竹路一段1473巷100號",
      "StationPhone": "04-22473033",
      "StationClass": "4",
      "StationURL": "http://tip.railway.gov.tw/tra-tip-web/tip/tip00H/tipH41/viewStaInfo/3270"
    },
    {
      "StationUID": "TRA-3160",
      "StationID": "3160",
      "StationName": {
        "Zh_tw": "苗栗",
        "En": "Miaoli"
      },
      "StationPosition": {
        "PositionLat": 24.57002,
        "PositionLon": 120.82264
      },
      "StationAddress": "36043苗栗縣苗栗市上苗里為公路 1 號",
      "StationPhone": "037-260031",
      "StationClass": "1",
      "StationURL": "http://tip.railway.gov.tw/tra-tip-web/tip/tip00H/tipH41/viewStaInfo/3160"
    },
    {
      "StationUID": "TRA-7270",
      "StationID": "7270",
      "StationName": {
        "Zh_tw": "大里",
        "En": "Dali"
      },
      "StationPosition": {
        "PositionLat": 24.96682,
        "PositionLon": 121.92251
      },
      "StationAddress": "26145宜蘭縣頭城鎮大里里濱海路六段 326 號",
      "StationPhone": "03-9781171",
      "StationClass": "4",
      "StationURL": "http://tip.railway.gov.tw/tra-tip-web/tip/tip00H/tipH41/viewStaInfo/7270"
    },
    {
      "StationUID": "TRA-5220",
      "StationID": "5220",
      "StationName": {
        "Zh_tw": "太麻里",
        "En": "Taimali"
      },
      "StationPosition": {
        "PositionLat": 22.61879,
        "PositionLon": 121.00505
      },
      "StationAddress": "96346臺東縣太麻里鄉大王村站前路 2 號",
      "StationPhone": "089-781544",
      "StationClass": "3",
      "StationURL": "http://tip.railway.gov.tw/tra-tip-web/tip/tip00H/tipH41/viewStaInfo/5220"
    },
    {
      "StationUID": "TRA-5200",
      "StationID": "5200",
      "StationName": {
        "Zh_tw": "瀧溪",
        "En": "Longxi"
      },
      "StationPosition": {
        "PositionLat": 22.46072,
        "PositionLon": 120.94188
      },
      "StationAddress": "96345臺東縣太麻里鄉多良村大溪 37 號",
      "StationPhone": "089-761482",
      "StationClass": "4",
      "StationURL": "http://tip.railway.gov.tw/tra-tip-web/tip/tip00H/tipH41/viewStaInfo/5200"
    },
    {
      "StationUID": "TRA-4370",
      "StationID": "4370",
      "StationName": {
        "Zh_tw": "美術館",
        "En": "Museum of Fine Arts"
      },
      "StationPosition": {
        "PositionLat": 22.65298,
        "PositionLon": 120.28163
      },
      "StationAddress": "80460高雄市鼓山區翠華路246號",
      "StationPhone": "07-5215147",
      "StationClass": "4",
      "StationURL": "http://tip.railway.gov.tw/tra-tip-web/tip/tip00H/tipH41/viewStaInfo/4370"
    },
    {
      "StationUID": "TRA-6210",
      "StationID": "6210",
      "StationName": {
        "Zh_tw": "豐田",
        "En": "Fengtian"
      },
      "StationPosition": {
        "PositionLat": 23.84836,
        "PositionLon": 121.49619
      },
      "StationAddress": "97451花蓮縣壽豐鄉豐山村站前街 36 號",
      "StationPhone": "03-8654251",
      "StationClass": "4",
      "StationURL": "http://tip.railway.gov.tw/tra-tip-web/tip/tip00H/tipH41/viewStaInfo/6210"
    },
    {
      "StationUID": "TRA-7070",
      "StationID": "7070",
      "StationName": {
        "Zh_tw": "漢本",
        "En": "Hanben"
      },
      "StationPosition": {
        "PositionLat": 24.33541,
        "PositionLon": 121.76827
      },
      "StationAddress": "27247宜蘭縣南澳鄉澳花村蘇花路一段 56 號",
      "StationPhone": "03-9985238",
      "StationClass": "3",
      "StationURL": "http://tip.railway.gov.tw/tra-tip-web/tip/tip00H/tipH41/viewStaInfo/7070"
    },
    {
      "StationUID": "TRA-6040",
      "StationID": "6040",
      "StationName": {
        "Zh_tw": "瑞和",
        "En": "Ruihe"
      },
      "StationPosition": {
        "PositionLat": 22.98001,
        "PositionLon": 121.15573
      },
      "StationAddress": "95543臺東縣鹿野鄉瑞和村瑞景路三段 1 之 1 號",
      "StationPhone": "089-580159",
      "StationClass": "5",
      "StationURL": "http://tip.railway.gov.tw/tra-tip-web/tip/tip00H/tipH41/viewStaInfo/6040"
    },
    {
      "StationUID": "TRA-4180",
      "StationID": "4180",
      "StationName": {
        "Zh_tw": "南科",
        "En": "Nanke"
      },
      "StationPosition": {
        "PositionLat": 23.10714,
        "PositionLon": 120.30175
      },
      "StationAddress": "74443臺南市新市區大營里大營 287-300 號",
      "StationPhone": "06-5896356",
      "StationClass": "4",
      "StationURL": "http://tip.railway.gov.tw/tra-tip-web/tip/tip00H/tipH41/viewStaInfo/4180"
    },
    {
      "StationUID": "TRA-0980",
      "StationID": "0980",
      "StationName": {
        "Zh_tw": "南港",
        "En": "Nangang"
      },
      "StationPosition": {
        "PositionLat": 25.05348,
        "PositionLon": 121.60706
      },
      "StationAddress": "115臺北市南港區南港里南港路一段 313 號",
      "StationPhone": "02-27838645",
      "StationClass": "1",
      "StationURL": "http://tip.railway.gov.tw/tra-tip-web/tip/tip00H/tipH41/viewStaInfo/0980"
    },
    {
      "StationUID": "TRA-7090",
      "StationID": "7090",
      "StationName": {
        "Zh_tw": "南澳",
        "En": "Nan'ao"
      },
      "StationPosition": {
        "PositionLat": 24.46342,
        "PositionLon": 121.80103
      },
      "StationAddress": "27092宜蘭縣蘇澳鎮南強里大通路 22 號",
      "StationPhone": "03-9981971",
      "StationClass": "3",
      "StationURL": "http://tip.railway.gov.tw/tra-tip-web/tip/tip00H/tipH41/viewStaInfo/7090"
    },
    {
      "StationUID": "TRA-3260",
      "StationID": "3260",
      "StationName": {
        "Zh_tw": "頭家厝",
        "En": "Toujiacuo"
      },
      "StationPosition": {
        "PositionLat": 24.19572,
        "PositionLon": 120.70398
      },
      "StationAddress": "427臺中市潭子區頭張東路43巷8號",
      "StationPhone": "04-25391426",
      "StationClass": "4",
      "StationURL": "http://tip.railway.gov.tw/tra-tip-web/tip/tip00H/tipH41/viewStaInfo/3260"
    },
    {
      "StationUID": "TRA-3433",
      "StationID": "3433",
      "StationName": {
        "Zh_tw": "龍泉",
        "En": "Longquan"
      },
      "StationPosition": {
        "PositionLat": 23.83521,
        "PositionLon": 120.74996
      },
      "StationAddress": "552南投縣集集鎮隘寮村龍泉巷 (無站房)",
      "StationPhone": "04-8792027",
      "StationClass": "5",
      "StationURL": "http://tip.railway.gov.tw/tra-tip-web/tip/tip00H/tipH41/viewStaInfo/3433"
    },
    {
      "StationUID": "TRA-5240",
      "StationID": "5240",
      "StationName": {
        "Zh_tw": "康樂",
        "En": "Kangle"
      },
      "StationPosition": {
        "PositionLat": 22.76406,
        "PositionLon": 121.09338
      },
      "StationAddress": "95060臺東縣臺東市康樂里博物館路 51 巷 131 號",
      "StationPhone": "089-383107",
      "StationClass": "4",
      "StationURL": "http://tip.railway.gov.tw/tra-tip-web/tip/tip00H/tipH41/viewStaInfo/5240"
    },
    {
      "StationUID": "TRA-6100",
      "StationID": "6100",
      "StationName": {
        "Zh_tw": "東里",
        "En": "Dongli"
      },
      "StationPosition": {
        "PositionLat": 23.27127,
        "PositionLon": 121.30575
      },
      "StationAddress": "98392花蓮縣富里鄉東里村大莊路 15 之 6 號",
      "StationPhone": "03-8861005",
      "StationClass": "3",
      "StationURL": "http://tip.railway.gov.tw/tra-tip-web/tip/tip00H/tipH41/viewStaInfo/6100"
    },
    {
      "StationUID": "TRA-6050",
      "StationID": "6050",
      "StationName": {
        "Zh_tw": "關山",
        "En": "Guanshan"
      },
      "StationPosition": {
        "PositionLat": 23.04564,
        "PositionLon": 121.16441
      },
      "StationAddress": "95662臺東縣關山鎮里壠里博愛路 2 號",
      "StationPhone": "089-811033",
      "StationClass": "3",
      "StationURL": "http://tip.railway.gov.tw/tra-tip-web/tip/tip00H/tipH41/viewStaInfo/6050"
    },
    {
      "StationUID": "TRA-7110",
      "StationID": "7110",
      "StationName": {
        "Zh_tw": "永樂",
        "En": "Yongle"
      },
      "StationPosition": {
        "PositionLat": 24.56843,
        "PositionLon": 121.84458
      },
      "StationAddress": "27046宜蘭縣蘇澳鎮永樂里圳頭路 60 號",
      "StationPhone": "03-9961889",
      "StationClass": "3",
      "StationURL": "http://tip.railway.gov.tw/tra-tip-web/tip/tip00H/tipH41/viewStaInfo/7110"
    },
    {
      "StationUID": "TRA-1203",
      "StationID": "1203",
      "StationName": {
        "Zh_tw": "竹東",
        "En": "Zhudong"
      },
      "StationPosition": {
        "PositionLat": 24.73811,
        "PositionLon": 121.09465
      },
      "StationAddress": "31047新竹縣竹東鎮雞林里東林路 196 號",
      "StationPhone": "03-5962042",
      "StationClass": "2",
      "StationURL": "http://tip.railway.gov.tw/tra-tip-web/tip/tip00H/tipH41/viewStaInfo/1203"
    },
    {
      "StationUID": "TRA-4290",
      "StationID": "4290",
      "StationName": {
        "Zh_tw": "大湖",
        "En": "Dahu"
      },
      "StationPosition": {
        "PositionLat": 22.87821,
        "PositionLon": 120.25384
      },
      "StationAddress": "82144高雄市路竹區甲南里天祐路 24 號",
      "StationPhone": "07-6932127",
      "StationClass": "3",
      "StationURL": "http://tip.railway.gov.tw/tra-tip-web/tip/tip00H/tipH41/viewStaInfo/4290"
    },
    {
      "StationUID": "TRA-4430",
      "StationID": "4430",
      "StationName": {
        "Zh_tw": "正義",
        "En": "Zhengyi"
      },
      "StationPosition": {
        "PositionLat": 22.63425,
        "PositionLon": 120.34245
      },
      "StationAddress": "807高雄市三民區建軍里正義路 308 巷",
      "StationPhone": "",
      "StationClass": "4",
      "StationURL": "http://tip.railway.gov.tw/tra-tip-web/tip/tip00H/tipH41/viewStaInfo/4430"
    },
    {
      "StationUID": "TRA-3230",
      "StationID": "3230",
      "StationName": {
        "Zh_tw": "豐原",
        "En": "Fengyuan"
      },
      "StationPosition": {
        "PositionLat": 24.25413,
        "PositionLon": 120.72291
      },
      "StationAddress": "42056臺中市豐原區豐原里中正路 1 號",
      "StationPhone": "04-25207950#32",
      "StationClass": "1",
      "StationURL": "http://tip.railway.gov.tw/tra-tip-web/tip/tip00H/tipH41/viewStaInfo/3230"
    },
    {
      "StationUID": "TRA-7362",
      "StationID": "7362",
      "StationName": {
        "Zh_tw": "八斗子",
        "En": "Badouzi"
      },
      "StationPosition": {
        "PositionLat": 25.13534,
        "PositionLon": 121.80285
      },
      "StationAddress": "202基隆市中正區砂子里省道臺 2 線 (與新北市瑞芳區交界處、無站房)",
      "StationPhone": "02-24972033",
      "StationClass": "5",
      "StationURL": "http://tip.railway.gov.tw/tra-tip-web/tip/tip00H/tipH41/viewStaInfo/7362"
    },
    {
      "StationUID": "TRA-4190",
      "StationID": "4190",
      "StationName": {
        "Zh_tw": "新市",
        "En": "Xinshi"
      },
      "StationPosition": {
        "PositionLat": 23.06816,
        "PositionLon": 120.29004
      },
      "StationAddress": "74448臺南市新市區新和里中華路 1 號",
      "StationPhone": "06-5996911",
      "StationClass": "3",
      "StationURL": "http://tip.railway.gov.tw/tra-tip-web/tip/tip00H/tipH41/viewStaInfo/4190"
    },
    {
      "StationUID": "TRA-1030",
      "StationID": "1030",
      "StationName": {
        "Zh_tw": "浮洲",
        "En": "Fuzhou"
      },
      "StationPosition": {
        "PositionLat": 25.00419,
        "PositionLon": 121.44477
      },
      "StationAddress": "22058新北市板橋區僑中里僑中二街 156 號",
      "StationPhone": "02-23815226#4665",
      "StationClass": "4",
      "StationURL": "http://tip.railway.gov.tw/tra-tip-web/tip/tip00H/tipH41/viewStaInfo/1030"
    },
    {
      "StationUID": "TRA-4080",
      "StationID": "4080",
      "StationName": {
        "Zh_tw": "嘉義",
        "En": "Chiayi"
      },
      "StationPosition": {
        "PositionLat": 23.47902,
        "PositionLon": 120.44124
      },
      "StationAddress": "60041嘉義市 西區番社里中山路 528 號",
      "StationPhone": "05-2228904",
      "StationClass": "1",
      "StationURL": "http://tip.railway.gov.tw/tra-tip-web/tip/tip00H/tipH41/viewStaInfo/4080"
    },
    {
      "StationUID": "TRA-6080",
      "StationID": "6080",
      "StationName": {
        "Zh_tw": "富里",
        "En": "Fuli"
      },
      "StationPosition": {
        "PositionLat": 23.17935,
        "PositionLon": 121.24864
      },
      "StationAddress": "98341花蓮縣富里鄉富里村車站街 56 號",
      "StationPhone": "03-8831771",
      "StationClass": "3",
      "StationURL": "http://tip.railway.gov.tw/tra-tip-web/tip/tip00H/tipH41/viewStaInfo/6080"
    },
    {
      "StationUID": "TRA-6000",
      "StationID": "6000",
      "StationName": {
        "Zh_tw": "臺東",
        "En": "Taitung"
      },
      "StationPosition": {
        "PositionLat": 22.79375,
        "PositionLon": 121.12326
      },
      "StationAddress": "95058臺東縣臺東市岩灣里岩灣路 101 巷 598 號",
      "StationPhone": "089-229687",
      "StationClass": "1",
      "StationURL": "http://tip.railway.gov.tw/tra-tip-web/tip/tip00H/tipH41/viewStaInfo/6000"
    },
    {
      "StationUID": "TRA-1250",
      "StationID": "1250",
      "StationName": {
        "Zh_tw": "竹南",
        "En": "Zhunan"
      },
      "StationPosition": {
        "PositionLat": 24.68663,
        "PositionLon": 120.88041
      },
      "StationAddress": "35041苗栗縣竹南鎮竹南里中山路 166 號",
      "StationPhone": "037-472030",
      "StationClass": "1",
      "StationURL": "http://tip.railway.gov.tw/tra-tip-web/tip/tip00H/tipH41/viewStaInfo/1250"
    },
    {
      "StationUID": "TRA-4380",
      "StationID": "4380",
      "StationName": {
        "Zh_tw": "鼓山",
        "En": "Gushan"
      },
      "StationPosition": {
        "PositionLat": 22.64169,
        "PositionLon": 120.28071
      },
      "StationAddress": "80445高雄市鼓山區鐵路街20巷6號",
      "StationPhone": "07-5217014",
      "StationClass": "4",
      "StationURL": "http://tip.railway.gov.tw/tra-tip-web/tip/tip00H/tipH41/viewStaInfo/4380"
    },
    {
      "StationUID": "TRA-7320",
      "StationID": "7320",
      "StationName": {
        "Zh_tw": "牡丹",
        "En": "Mudan"
      },
      "StationPosition": {
        "PositionLat": 25.05877,
        "PositionLon": 121.85194
      },
      "StationAddress": "22741新北市雙溪區牡丹里51號",
      "StationPhone": "02-24932980",
      "StationClass": "5",
      "StationURL": "http://tip.railway.gov.tw/tra-tip-web/tip/tip00H/tipH41/viewStaInfo/7320"
    },
    {
      "StationUID": "TRA-7190",
      "StationID": "7190",
      "StationName": {
        "Zh_tw": "宜蘭",
        "En": "Yilan"
      },
      "StationPosition": {
        "PositionLat": 24.75462,
        "PositionLon": 121.75791
      },
      "StationAddress": "26043宜蘭縣宜蘭市和睦里光復路 1 號",
      "StationPhone": "03-9323801",
      "StationClass": "1",
      "StationURL": "http://tip.railway.gov.tw/tra-tip-web/tip/tip00H/tipH41/viewStaInfo/7190"
    },
    {
      "StationUID": "TRA-4420",
      "StationID": "4420",
      "StationName": {
        "Zh_tw": "科工館",
        "En": "Science And Technology Museum"
      },
      "StationPosition": {
        "PositionLat": 22.63702,
        "PositionLon": 120.32663
      },
      "StationAddress": "807高雄市三民區寶盛里15鄰大順三路307號",
      "StationPhone": "07-2234778",
      "StationClass": "4",
      "StationURL": "http://tip.railway.gov.tw/tra-tip-web/tip/tip00H/tipH41/viewStaInfo/4420"
    },
    {
      "StationUID": "TRA-4120",
      "StationID": "4120",
      "StationName": {
        "Zh_tw": "新營",
        "En": "Xinying"
      },
      "StationPosition": {
        "PositionLat": 23.30672,
        "PositionLon": 120.32304
      },
      "StationAddress": "73045臺南市新營區中營里中山路 1 號",
      "StationPhone": "06-6322104",
      "StationClass": "1",
      "StationURL": "http://tip.railway.gov.tw/tra-tip-web/tip/tip00H/tipH41/viewStaInfo/4120"
    },
    {
      "StationUID": "TRA-6200",
      "StationID": "6200",
      "StationName": {
        "Zh_tw": "林榮新光",
        "En": "Linrong Shin Kong"
      },
      "StationPosition": {
        "PositionLat": 23.80167,
        "PositionLon": 121.46166
      },
      "StationAddress": "97542花蓮縣鳳林鎮兆豐路800號",
      "StationPhone": "03-8772677",
      "StationClass": "4",
      "StationURL": "http://tip.railway.gov.tw/tra-tip-web/tip/tip00H/tipH41/viewStaInfo/6200"
    },
    {
      "StationUID": "TRA-4260",
      "StationID": "4260",
      "StationName": {
        "Zh_tw": "仁德",
        "En": "Rende"
      },
      "StationPosition": {
        "PositionLat": 22.92364,
        "PositionLon": 120.24061
      },
      "StationAddress": "71750臺南市仁德區保安里永德路 10 號",
      "StationPhone": "06-2669383",
      "StationClass": "4",
      "StationURL": "http://tip.railway.gov.tw/tra-tip-web/tip/tip00H/tipH41/viewStaInfo/4260"
    },
    {
      "StationUID": "TRA-7330",
      "StationID": "7330",
      "StationName": {
        "Zh_tw": "三貂嶺",
        "En": "Sandiaoling"
      },
      "StationPosition": {
        "PositionLat": 25.06555,
        "PositionLon": 121.82259
      },
      "StationAddress": "22446新北市瑞芳區碩仁里魚寮路 1 號",
      "StationPhone": "02-24977896",
      "StationClass": "3",
      "StationURL": "http://tip.railway.gov.tw/tra-tip-web/tip/tip00H/tipH41/viewStaInfo/7330"
    },
    {
      "StationUID": "TRA-1191",
      "StationID": "1191",
      "StationName": {
        "Zh_tw": "千甲",
        "En": "Qianjia"
      },
      "StationPosition": {
        "PositionLat": 24.80669,
        "PositionLon": 121.00301
      },
      "StationAddress": "30059新竹市 東區水源里千甲路 142 號",
      "StationPhone": "03-5237441",
      "StationClass": "4",
      "StationURL": "http://tip.railway.gov.tw/tra-tip-web/tip/tip00H/tipH41/viewStaInfo/1191"
    },
    {
      "StationUID": "TRA-5999",
      "StationID": "5999",
      "StationName": {
        "Zh_tw": "潮州基地",
        "En": "Chaozhou Railway Workshop"
      },
      "StationPosition": {
        "PositionLat": 22.52231,
        "PositionLon": 120.52642
      },
      "StationAddress": "92054屏東縣潮州鎮光春里光復路 616 號",
      "StationPhone": "08-7889880",
      "StationClass": "4",
      "StationURL": "http://tip.railway.gov.tw/tra-tip-web/tip/tip00H/tipH41/viewStaInfo/5999"
    },
    {
      "StationUID": "TRA-7080",
      "StationID": "7080",
      "StationName": {
        "Zh_tw": "武塔",
        "En": "Wuta"
      },
      "StationPosition": {
        "PositionLat": 24.44879,
        "PositionLon": 121.77601
      },
      "StationAddress": "27245宜蘭縣南澳鄉武塔村新溪路 18 號",
      "StationPhone": "03-9981971",
      "StationClass": "5",
      "StationURL": "http://tip.railway.gov.tw/tra-tip-web/tip/tip00H/tipH41/viewStaInfo/7080"
    },
    {
      "StationUID": "TRA-7390",
      "StationID": "7390",
      "StationName": {
        "Zh_tw": "暖暖",
        "En": "Nuannuan"
      },
      "StationPosition": {
        "PositionLat": 25.10224,
        "PositionLon": 121.74048
      },
      "StationAddress": "205基隆市暖暖區暖暖里暖暖街 51 號",
      "StationPhone": "02-24972033",
      "StationClass": "5",
      "StationURL": "http://tip.railway.gov.tw/tra-tip-web/tip/tip00H/tipH41/viewStaInfo/7390"
    },
    {
      "StationUID": "TRA-1201",
      "StationID": "1201",
      "StationName": {
        "Zh_tw": "上員",
        "En": "Shangyuan"
      },
      "StationPosition": {
        "PositionLat": 24.77797,
        "PositionLon": 121.05554
      },
      "StationAddress": "310新竹縣竹東鎮上員里光明路 (無站房)",
      "StationPhone": "03-5962042",
      "StationClass": "5",
      "StationURL": "http://tip.railway.gov.tw/tra-tip-web/tip/tip00H/tipH41/viewStaInfo/1201"
    },
    {
      "StationUID": "TRA-7310",
      "StationID": "7310",
      "StationName": {
        "Zh_tw": "雙溪",
        "En": "Shuangxi"
      },
      "StationPosition": {
        "PositionLat": 25.03858,
        "PositionLon": 121.86645
      },
      "StationAddress": "22744新北市雙溪區新基里朝陽街 1 號",
      "StationPhone": "02-24932980",
      "StationClass": "2",
      "StationURL": "http://tip.railway.gov.tw/tra-tip-web/tip/tip00H/tipH41/viewStaInfo/7310"
    },
    {
      "StationUID": "TRA-6180",
      "StationID": "6180",
      "StationName": {
        "Zh_tw": "鳳林",
        "En": "Fenglin"
      },
      "StationPosition": {
        "PositionLat": 23.74625,
        "PositionLon": 121.44708
      },
      "StationAddress": "97545花蓮縣鳳林鎮鳳智里中山路 43 號",
      "StationPhone": "03-8762004",
      "StationClass": "3",
      "StationURL": "http://tip.railway.gov.tw/tra-tip-web/tip/tip00H/tipH41/viewStaInfo/6180"
    },
    {
      "StationUID": "TRA-6160",
      "StationID": "6160",
      "StationName": {
        "Zh_tw": "光復",
        "En": "Guangfu"
      },
      "StationPosition": {
        "PositionLat": 23.66633,
        "PositionLon": 121.42125
      },
      "StationAddress": "97645花蓮縣光復鄉大安村中正路一段 2 之 1 號",
      "StationPhone": "03-8704143",
      "StationClass": "3",
      "StationURL": "http://tip.railway.gov.tw/tra-tip-web/tip/tip00H/tipH41/viewStaInfo/6160"
    },
    {
      "StationUID": "TRA-4300",
      "StationID": "4300",
      "StationName": {
        "Zh_tw": "路竹",
        "En": "Luzhu"
      },
      "StationPosition": {
        "PositionLat": 22.85404,
        "PositionLon": 120.26619
      },
      "StationAddress": "82146高雄市路竹區竹南里中正路 288 號",
      "StationPhone": "07-6072723",
      "StationClass": "3",
      "StationURL": "http://tip.railway.gov.tw/tra-tip-web/tip/tip00H/tipH41/viewStaInfo/4300"
    },
    {
      "StationUID": "TRA-1204",
      "StationID": "1204",
      "StationName": {
        "Zh_tw": "橫山",
        "En": "Hengshan"
      },
      "StationPosition": {
        "PositionLat": 24.72051,
        "PositionLon": 121.11657
      },
      "StationAddress": "31241新竹縣橫山鄉橫山村橫山路 97 號 (無站房)",
      "StationPhone": "03-5962042",
      "StationClass": "5",
      "StationURL": "http://tip.railway.gov.tw/tra-tip-web/tip/tip00H/tipH41/viewStaInfo/1204"
    },
    {
      "StationUID": "TRA-1140",
      "StationID": "1140",
      "StationName": {
        "Zh_tw": "新富",
        "En": "Xinfu"
      },
      "StationPosition": {
        "PositionLat": 24.93107,
        "PositionLon": 121.06759
      },
      "StationAddress": "32649桃園市楊梅區富豐里富全街 1 號",
      "StationPhone": "03-4723754",
      "StationClass": "5",
      "StationURL": "http://tip.railway.gov.tw/tra-tip-web/tip/tip00H/tipH41/viewStaInfo/1140"
    },
    {
      "StationUID": "TRA-4272",
      "StationID": "4272",
      "StationName": {
        "Zh_tw": "沙崙",
        "En": "Shalun"
      },
      "StationPosition": {
        "PositionLat": 22.92419,
        "PositionLon": 120.28635
      },
      "StationAddress": "71151臺南市歸仁區沙崙里歸仁大道 102 號",
      "StationPhone": "06-3032686",
      "StationClass": "4",
      "StationURL": "http://tip.railway.gov.tw/tra-tip-web/tip/tip00H/tipH41/viewStaInfo/4272"
    },
    {
      "StationUID": "TRA-1050",
      "StationID": "1050",
      "StationName": {
        "Zh_tw": "南樹林",
        "En": "South Shulin"
      },
      "StationPosition": {
        "PositionLat": 24.98034,
        "PositionLon": 121.40891
      },
      "StationAddress": "23846新北市樹林區東山里中山路二段 230 號",
      "StationPhone": "02-26812052",
      "StationClass": "4",
      "StationURL": "http://tip.railway.gov.tw/tra-tip-web/tip/tip00H/tipH41/viewStaInfo/1050"
    },
    {
      "StationUID": "TRA-6170",
      "StationID": "6170",
      "StationName": {
        "Zh_tw": "萬榮",
        "En": "Wanrong"
      },
      "StationPosition": {
        "PositionLat": 23.71199,
        "PositionLon": 121.41907
      },
      "StationAddress": "97543花蓮縣鳳林鎮長橋里長德街 17 號",
      "StationPhone": "03-8752175",
      "StationClass": "3",
      "StationURL": "http://tip.railway.gov.tw/tra-tip-web/tip/tip00H/tipH41/viewStaInfo/6170"
    },
    {
      "StationUID": "TRA-7030",
      "StationID": "7030",
      "StationName": {
        "Zh_tw": "新城",
        "En": "Xincheng"
      },
      "StationPosition": {
        "PositionLat": 24.12761,
        "PositionLon": 121.64103
      },
      "StationAddress": "97163花蓮縣新城鄉新城村新興一路 73 號",
      "StationPhone": "03-8611237",
      "StationClass": "2",
      "StationURL": "http://tip.railway.gov.tw/tra-tip-web/tip/tip00H/tipH41/viewStaInfo/7030"
    },
    {
      "StationUID": "TRA-3290",
      "StationID": "3290",
      "StationName": {
        "Zh_tw": "精武",
        "En": "Jingwu"
      },
      "StationPosition": {
        "PositionLat": 24.14917,
        "PositionLon": 120.69773
      },
      "StationAddress": "40151臺中市東區東南里東光路 161號",
      "StationPhone": "04-23606501",
      "StationClass": "4",
      "StationURL": "http://tip.railway.gov.tw/tra-tip-web/tip/tip00H/tipH41/viewStaInfo/3290"
    },
    {
      "StationUID": "TRA-0930",
      "StationID": "0930",
      "StationName": {
        "Zh_tw": "七堵",
        "En": "Qidu"
      },
      "StationPosition": {
        "PositionLat": 25.09294,
        "PositionLon": 121.71415
      },
      "StationAddress": "20646基隆市七堵區長興里東新街 2 號",
      "StationPhone": "02-24553426",
      "StationClass": "1",
      "StationURL": "http://tip.railway.gov.tw/tra-tip-web/tip/tip00H/tipH41/viewStaInfo/0930"
    },
    {
      "StationUID": "TRA-4440",
      "StationID": "4440",
      "StationName": {
        "Zh_tw": "鳳山",
        "En": "Fengshan"
      },
      "StationPosition": {
        "PositionLat": 22.63131,
        "PositionLon": 120.35746
      },
      "StationAddress": "83064高雄市鳳山區曹公里曹公路 137 號",
      "StationPhone": "07-7460423",
      "StationClass": "2",
      "StationURL": "http://tip.railway.gov.tw/tra-tip-web/tip/tip00H/tipH41/viewStaInfo/4440"
    },
    {
      "StationUID": "TRA-4410",
      "StationID": "4410",
      "StationName": {
        "Zh_tw": "民族",
        "En": "Minzu"
      },
      "StationPosition": {
        "PositionLat": 22.63881,
        "PositionLon": 120.31479
      },
      "StationAddress": "807高雄市三民區博惠里14鄰凱旋一路260號",
      "StationPhone": "07-2231492",
      "StationClass": "4",
      "StationURL": "http://tip.railway.gov.tw/tra-tip-web/tip/tip00H/tipH41/viewStaInfo/4410"
    },
    {
      "StationUID": "TRA-3310",
      "StationID": "3310",
      "StationName": {
        "Zh_tw": "五權",
        "En": "Wuquan"
      },
      "StationPosition": {
        "PositionLat": 24.12877,
        "PositionLon": 120.66644
      },
      "StationAddress": "402臺中市南區建國南路二段201號\t\t",
      "StationPhone": "04-22601636",
      "StationClass": "4",
      "StationURL": "http://tip.railway.gov.tw/tra-tip-web/tip/tip00H/tipH41/viewStaInfo/3310"
    },
    {
      "StationUID": "TRA-7000",
      "StationID": "7000",
      "StationName": {
        "Zh_tw": "花蓮",
        "En": "Hualien"
      },
      "StationPosition": {
        "PositionLat": 23.99264,
        "PositionLon": 121.60158
      },
      "StationAddress": "97055花蓮縣花蓮市國聯里國聯一路 100 號",
      "StationPhone": "03-8355941",
      "StationClass": "0",
      "StationURL": "http://tip.railway.gov.tw/tra-tip-web/tip/tip00H/tipH41/viewStaInfo/7000"
    },
    {
      "StationUID": "TRA-3330",
      "StationID": "3330",
      "StationName": {
        "Zh_tw": "烏日",
        "En": "Wuri"
      },
      "StationPosition": {
        "PositionLat": 24.10867,
        "PositionLon": 120.62244
      },
      "StationAddress": "41442臺中市烏日區烏日里三民街 258 號",
      "StationPhone": "04-23381071",
      "StationClass": "4",
      "StationURL": "http://tip.railway.gov.tw/tra-tip-web/tip/tip00H/tipH41/viewStaInfo/3330"
    },
    {
      "StationUID": "TRA-4450",
      "StationID": "4450",
      "StationName": {
        "Zh_tw": "後庄",
        "En": "Houzhuang"
      },
      "StationPosition": {
        "PositionLat": 22.64013,
        "PositionLon": 120.39132
      },
      "StationAddress": "83143高雄市大寮區後庄里民慶街 9 號",
      "StationPhone": "07-7020149",
      "StationClass": "4",
      "StationURL": "http://tip.railway.gov.tw/tra-tip-web/tip/tip00H/tipH41/viewStaInfo/4450"
    },
    {
      "StationUID": "TRA-4320",
      "StationID": "4320",
      "StationName": {
        "Zh_tw": "橋頭",
        "En": "Qiaotou"
      },
      "StationPosition": {
        "PositionLat": 22.76081,
        "PositionLon": 120.31017
      },
      "StationAddress": "82548高雄市橋頭區橋頭里站前街 14 號",
      "StationPhone": "07-6115424",
      "StationClass": "3",
      "StationURL": "http://tip.railway.gov.tw/tra-tip-web/tip/tip00H/tipH41/viewStaInfo/4320"
    },
    {
      "StationUID": "TRA-7120",
      "StationID": "7120",
      "StationName": {
        "Zh_tw": "蘇澳",
        "En": "Su'ao"
      },
      "StationPosition": {
        "PositionLat": 24.59521,
        "PositionLon": 121.85144
      },
      "StationAddress": "27048宜蘭縣蘇澳鎮蘇南里太平路 1 號",
      "StationPhone": "03-9962028",
      "StationClass": "2",
      "StationURL": "http://tip.railway.gov.tw/tra-tip-web/tip/tip00H/tipH41/viewStaInfo/7120"
    },
    {
      "StationUID": "TRA-3430",
      "StationID": "3430",
      "StationName": {
        "Zh_tw": "二水",
        "En": "Ershui"
      },
      "StationPosition": {
        "PositionLat": 23.81321,
        "PositionLon": 120.61805
      },
      "StationAddress": "53042彰化縣二水鄉光化村光文路 1 號",
      "StationPhone": "04-8792027",
      "StationClass": "2",
      "StationURL": "http://tip.railway.gov.tw/tra-tip-web/tip/tip00H/tipH41/viewStaInfo/3430"
    },
    {
      "StationUID": "TRA-1070",
      "StationID": "1070",
      "StationName": {
        "Zh_tw": "鶯歌",
        "En": "Yingge"
      },
      "StationPosition": {
        "PositionLat": 24.95432,
        "PositionLon": 121.35535
      },
      "StationAddress": "23942新北市鶯歌區東鶯里文化路 68 號",
      "StationPhone": "02-26792004",
      "StationClass": "2",
      "StationURL": "http://tip.railway.gov.tw/tra-tip-web/tip/tip00H/tipH41/viewStaInfo/1070"
    },
    {
      "StationUID": "TRA-0970",
      "StationID": "0970",
      "StationName": {
        "Zh_tw": "汐科",
        "En": "Xike"
      },
      "StationPosition": {
        "PositionLat": 25.06241,
        "PositionLon": 121.64669
      },
      "StationAddress": "22184新北市汐止區大同里大同路二段 182 號",
      "StationPhone": "02-23815226#8730",
      "StationClass": "4",
      "StationURL": "http://tip.railway.gov.tw/tra-tip-web/tip/tip00H/tipH41/viewStaInfo/0970"
    },
    {
      "StationUID": "TRA-0960",
      "StationID": "0960",
      "StationName": {
        "Zh_tw": "汐止",
        "En": "Xizhi"
      },
      "StationPosition": {
        "PositionLat": 25.06894,
        "PositionLon": 121.66244
      },
      "StationAddress": "22166新北市汐止區信望里信義路 1 號",
      "StationPhone": "02-26415096",
      "StationClass": "2",
      "StationURL": "http://tip.railway.gov.tw/tra-tip-web/tip/tip00H/tipH41/viewStaInfo/0960"
    },
    {
      "StationUID": "TRA-3220",
      "StationID": "3220",
      "StationName": {
        "Zh_tw": "后里",
        "En": "Houli"
      },
      "StationPosition": {
        "PositionLat": 24.30933,
        "PositionLon": 120.73288
      },
      "StationAddress": "42142臺中市后里區義里里甲后路一段 1 號",
      "StationPhone": "04-25562038",
      "StationClass": "3",
      "StationURL": "http://tip.railway.gov.tw/tra-tip-web/tip/tip00H/tipH41/viewStaInfo/3220"
    },
    {
      "StationUID": "TRA-4210",
      "StationID": "4210",
      "StationName": {
        "Zh_tw": "大橋",
        "En": "Daqiao"
      },
      "StationPosition": {
        "PositionLat": 23.01951,
        "PositionLon": 120.22449
      },
      "StationAddress": "71049臺南市永康區西橋里中華路 835 號",
      "StationPhone": "06-3021755",
      "StationClass": "4",
      "StationURL": "http://tip.railway.gov.tw/tra-tip-web/tip/tip00H/tipH41/viewStaInfo/4210"
    },
    {
      "StationUID": "TRA-6140",
      "StationID": "6140",
      "StationName": {
        "Zh_tw": "富源",
        "En": "Fuyuan"
      },
      "StationPosition": {
        "PositionLat": 23.58028,
        "PositionLon": 121.38003
      },
      "StationAddress": "97843花蓮縣瑞穗鄉富源村富源路 2 號",
      "StationPhone": "03-8811824",
      "StationClass": "3",
      "StationURL": "http://tip.railway.gov.tw/tra-tip-web/tip/tip00H/tipH41/viewStaInfo/6140"
    },
    {
      "StationUID": "TRA-3370",
      "StationID": "3370",
      "StationName": {
        "Zh_tw": "花壇",
        "En": "Huatan"
      },
      "StationPosition": {
        "PositionLat": 24.02501,
        "PositionLon": 120.53738
      },
      "StationAddress": "50341彰化縣花壇鄉花壇村中正路 370 號",
      "StationPhone": "04-7881418",
      "StationClass": "4",
      "StationURL": "http://tip.railway.gov.tw/tra-tip-web/tip/tip00H/tipH41/viewStaInfo/3370"
    },
    {
      "StationUID": "TRA-7140",
      "StationID": "7140",
      "StationName": {
        "Zh_tw": "新馬",
        "En": "Xinma"
      },
      "StationPosition": {
        "PositionLat": 24.61535,
        "PositionLon": 121.82292
      },
      "StationAddress": "27048宜蘭縣蘇澳鎮新城里中山路二段 322 號",
      "StationPhone": "03-9961004",
      "StationClass": "5",
      "StationURL": "http://tip.railway.gov.tw/tra-tip-web/tip/tip00H/tipH41/viewStaInfo/7140"
    },
    {
      "StationUID": "TRA-7160",
      "StationID": "7160",
      "StationName": {
        "Zh_tw": "羅東",
        "En": "Luodong"
      },
      "StationPosition": {
        "PositionLat": 24.67795,
        "PositionLon": 121.77424
      },
      "StationAddress": "26550宜蘭縣羅東鎮大新里公正路 2 號",
      "StationPhone": "03-9542117",
      "StationClass": "2",
      "StationURL": "http://tip.railway.gov.tw/tra-tip-web/tip/tip00H/tipH41/viewStaInfo/7160"
    },
    {
      "StationUID": "TRA-2160",
      "StationID": "2160",
      "StationName": {
        "Zh_tw": "新埔",
        "En": "Xinpu"
      },
      "StationPosition": {
        "PositionLat": 24.54018,
        "PositionLon": 120.69518
      },
      "StationAddress": "35742苗栗縣通霄鎮新埔里新埔 57 號",
      "StationPhone": "037-793066",
      "StationClass": "4",
      "StationURL": "http://tip.railway.gov.tw/tra-tip-web/tip/tip00H/tipH41/viewStaInfo/2160"
    },
    {
      "StationUID": "TRA-3450",
      "StationID": "3450",
      "StationName": {
        "Zh_tw": "林內",
        "En": "Linnei"
      },
      "StationPosition": {
        "PositionLat": 23.75967,
        "PositionLon": 120.61499
      },
      "StationAddress": "64341雲林縣林內鄉林中村中山路 42 號",
      "StationPhone": "05-5892040",
      "StationClass": "3",
      "StationURL": "http://tip.railway.gov.tw/tra-tip-web/tip/tip00H/tipH41/viewStaInfo/3450"
    },
    {
      "StationUID": "TRA-7150",
      "StationID": "7150",
      "StationName": {
        "Zh_tw": "冬山",
        "En": "Dongshan"
      },
      "StationPosition": {
        "PositionLat": 24.63627,
        "PositionLon": 121.79212
      },
      "StationAddress": "26946宜蘭縣冬山鄉冬山村中正路 1 號",
      "StationPhone": "03-9594221",
      "StationClass": "2",
      "StationURL": "http://tip.railway.gov.tw/tra-tip-web/tip/tip00H/tipH41/viewStaInfo/7150"
    },
    {
      "StationUID": "TRA-4250",
      "StationID": "4250",
      "StationName": {
        "Zh_tw": "保安",
        "En": "Bao'an"
      },
      "StationPosition": {
        "PositionLat": 22.93289,
        "PositionLon": 120.23143
      },
      "StationAddress": "71755臺南市仁德區保安里文賢路一段 529 巷 10 號",
      "StationPhone": "06-2665988",
      "StationClass": "3",
      "StationURL": "http://tip.railway.gov.tw/tra-tip-web/tip/tip00H/tipH41/viewStaInfo/4250"
    },
    {
      "StationUID": "TRA-1100",
      "StationID": "1100",
      "StationName": {
        "Zh_tw": "中壢",
        "En": "Zhongli (Taoyuan)"
      },
      "StationPosition": {
        "PositionLat": 24.95382,
        "PositionLon": 121.22571
      },
      "StationAddress": "32041桃園市中壢區石頭里中和路 139 號",
      "StationPhone": "03-4223235",
      "StationClass": "1",
      "StationURL": "http://tip.railway.gov.tw/tra-tip-web/tip/tip00H/tipH41/viewStaInfo/1100"
    },
    {
      "StationUID": "TRA-1210",
      "StationID": "1210",
      "StationName": {
        "Zh_tw": "新竹",
        "En": "Hsinchu"
      },
      "StationPosition": {
        "PositionLat": 24.80169,
        "PositionLon": 120.97156
      },
      "StationAddress": "30060新竹市 東區榮光里中華路二段 445 號",
      "StationPhone": "03-5237441",
      "StationClass": "1",
      "StationURL": "http://tip.railway.gov.tw/tra-tip-web/tip/tip00H/tipH41/viewStaInfo/1210"
    },
    {
      "StationUID": "TRA-1220",
      "StationID": "1220",
      "StationName": {
        "Zh_tw": "三姓橋",
        "En": "Sanxingqiao"
      },
      "StationPosition": {
        "PositionLat": 24.78723,
        "PositionLon": 120.92838
      },
      "StationAddress": "30093新竹市 香山區香山里元培街 32 巷 30 號",
      "StationPhone": "03-5237441",
      "StationClass": "4",
      "StationURL": "http://tip.railway.gov.tw/tra-tip-web/tip/tip00H/tipH41/viewStaInfo/1220"
    },
    {
      "StationUID": "TRA-1020",
      "StationID": "1020",
      "StationName": {
        "Zh_tw": "板橋",
        "En": "Banqiao"
      },
      "StationPosition": {
        "PositionLat": 25.01469,
        "PositionLon": 121.46352
      },
      "StationAddress": "220新北市板橋區新民里站前路",
      "StationPhone": "02-89691036",
      "StationClass": "1",
      "StationURL": "http://tip.railway.gov.tw/tra-tip-web/tip/tip00H/tipH41/viewStaInfo/1020"
    },
    {
      "StationUID": "TRA-6060",
      "StationID": "6060",
      "StationName": {
        "Zh_tw": "海端",
        "En": "Haiduan"
      },
      "StationPosition": {
        "PositionLat": 23.10257,
        "PositionLon": 121.17695
      },
      "StationAddress": "95664臺東縣關山鎮德高里西莊 49 號",
      "StationPhone": "089-811033",
      "StationClass": "4",
      "StationURL": "http://tip.railway.gov.tw/tra-tip-web/tip/tip00H/tipH41/viewStaInfo/6060"
    },
    {
      "StationUID": "TRA-4050",
      "StationID": "4050",
      "StationName": {
        "Zh_tw": "大林",
        "En": "Dalin"
      },
      "StationPosition": {
        "PositionLat": 23.60112,
        "PositionLon": 120.45585
      },
      "StationAddress": "62242嘉義縣大林鎮吉林里中山路 2 號",
      "StationPhone": "05-2654804",
      "StationClass": "3",
      "StationURL": "http://tip.railway.gov.tw/tra-tip-web/tip/tip00H/tipH41/viewStaInfo/4050"
    },
    {
      "StationUID": "TRA-2180",
      "StationID": "2180",
      "StationName": {
        "Zh_tw": "苑裡",
        "En": "Yuanli"
      },
      "StationPosition": {
        "PositionLat": 24.44344,
        "PositionLon": 120.65146
      },
      "StationAddress": "35841苗栗縣苑裡鎮苑北里中山路 165 號",
      "StationPhone": "037-851013",
      "StationClass": "3",
      "StationURL": "http://tip.railway.gov.tw/tra-tip-web/tip/tip00H/tipH41/viewStaInfo/2180"
    },
    {
      "StationUID": "TRA-7230",
      "StationID": "7230",
      "StationName": {
        "Zh_tw": "頭城",
        "En": "Toucheng"
      },
      "StationPosition": {
        "PositionLat": 24.85903,
        "PositionLon": 121.82251
      },
      "StationAddress": "26146宜蘭縣頭城鎮城北里纘祥路 59 號",
      "StationPhone": "03-9771429",
      "StationClass": "3",
      "StationURL": "http://tip.railway.gov.tw/tra-tip-web/tip/tip00H/tipH41/viewStaInfo/7230"
    },
    {
      "StationUID": "TRA-4330",
      "StationID": "4330",
      "StationName": {
        "Zh_tw": "楠梓",
        "En": "Nanzi"
      },
      "StationPosition": {
        "PositionLat": 22.72717,
        "PositionLon": 120.32453
      },
      "StationAddress": "81162高雄市楠梓區惠楠里建楠路 229 號",
      "StationPhone": "07-3510175",
      "StationClass": "2",
      "StationURL": "http://tip.railway.gov.tw/tra-tip-web/tip/tip00H/tipH41/viewStaInfo/4330"
    },
    {
      "StationUID": "TRA-4220",
      "StationID": "4220",
      "StationName": {
        "Zh_tw": "臺南",
        "En": "Tainan"
      },
      "StationPosition": {
        "PositionLat": 22.99719,
        "PositionLon": 120.21231
      },
      "StationAddress": "70146臺南市東區成大里北門路二段 4 號",
      "StationPhone": "06-2261314",
      "StationClass": "1",
      "StationURL": "http://tip.railway.gov.tw/tra-tip-web/tip/tip00H/tipH41/viewStaInfo/4220"
    },
    {
      "StationUID": "TRA-3250",
      "StationID": "3250",
      "StationName": {
        "Zh_tw": "潭子",
        "En": "Tanzi"
      },
      "StationPosition": {
        "PositionLat": 24.21283,
        "PositionLon": 120.70557
      },
      "StationAddress": "42751臺中市潭子區中山路二段352-1號",
      "StationPhone": "04-25363852",
      "StationClass": "3",
      "StationURL": "http://tip.railway.gov.tw/tra-tip-web/tip/tip00H/tipH41/viewStaInfo/3250"
    },
    {
      "StationUID": "TRA-1150",
      "StationID": "1150",
      "StationName": {
        "Zh_tw": "北湖",
        "En": "Beihu"
      },
      "StationPosition": {
        "PositionLat": 24.92191,
        "PositionLon": 121.05586
      },
      "StationAddress": "30371新竹縣湖口鄉東興村北湖路 1 號",
      "StationPhone": "03-5993850",
      "StationClass": "4",
      "StationURL": "http://tip.railway.gov.tw/tra-tip-web/tip/tip00H/tipH41/viewStaInfo/1150"
    },
    {
      "StationUID": "TRA-1194",
      "StationID": "1194",
      "StationName": {
        "Zh_tw": "六家",
        "En": "Liujia"
      },
      "StationPosition": {
        "PositionLat": 24.80751,
        "PositionLon": 121.03921
      },
      "StationAddress": "30273新竹縣竹北市隘口里復興三路二段 229 號",
      "StationPhone": "03-5962042",
      "StationClass": "4",
      "StationURL": "http://tip.railway.gov.tw/tra-tip-web/tip/tip00H/tipH41/viewStaInfo/1194"
    },
    {
      "StationUID": "TRA-4150",
      "StationID": "4150",
      "StationName": {
        "Zh_tw": "隆田",
        "En": "Longtian"
      },
      "StationPosition": {
        "PositionLat": 23.19271,
        "PositionLon": 120.31917
      },
      "StationAddress": "72041臺南市官田區隆田里中山路一段 1 號",
      "StationPhone": "06-5791664",
      "StationClass": "2",
      "StationURL": "http://tip.railway.gov.tw/tra-tip-web/tip/tip00H/tipH41/viewStaInfo/4150"
    },
    {
      "StationUID": "TRA-7290",
      "StationID": "7290",
      "StationName": {
        "Zh_tw": "福隆",
        "En": "Fulong"
      },
      "StationPosition": {
        "PositionLat": 25.01598,
        "PositionLon": 121.94471
      },
      "StationAddress": "22841新北市貢寮區福隆里福隆街 2 號",
      "StationPhone": "02-24991800",
      "StationClass": "3",
      "StationURL": "http://tip.railway.gov.tw/tra-tip-web/tip/tip00H/tipH41/viewStaInfo/7290"
    },
    {
      "StationUID": "TRA-6240",
      "StationID": "6240",
      "StationName": {
        "Zh_tw": "志學",
        "En": "Zhixue"
      },
      "StationPosition": {
        "PositionLat": 23.90751,
        "PositionLon": 121.52947
      },
      "StationAddress": "97443花蓮縣壽豐鄉志學村中正路 1 號",
      "StationPhone": "03-8662966",
      "StationClass": "3",
      "StationURL": "http://tip.railway.gov.tw/tra-tip-web/tip/tip00H/tipH41/viewStaInfo/6240"
    },
    {
      "StationUID": "TRA-1040",
      "StationID": "1040",
      "StationName": {
        "Zh_tw": "樹林",
        "En": "Shulin"
      },
      "StationPosition": {
        "PositionLat": 24.99121,
        "PositionLon": 121.42481
      },
      "StationAddress": "23845新北市樹林區樹北里鎮前街 112 號",
      "StationPhone": "02-26812052",
      "StationClass": "1",
      "StationURL": "http://tip.railway.gov.tw/tra-tip-web/tip/tip00H/tipH41/viewStaInfo/1040"
    },
    {
      "StationUID": "TRA-3435",
      "StationID": "3435",
      "StationName": {
        "Zh_tw": "水里",
        "En": "Shuili"
      },
      "StationPosition": {
        "PositionLat": 23.81844,
        "PositionLon": 120.85333
      },
      "StationAddress": "55353南投縣水里鄉水里村民生路 440 號",
      "StationPhone": "049-2770015",
      "StationClass": "4",
      "StationURL": "http://tip.railway.gov.tw/tra-tip-web/tip/tip00H/tipH41/viewStaInfo/3435"
    },
    {
      "StationUID": "TRA-7170",
      "StationID": "7170",
      "StationName": {
        "Zh_tw": "中里",
        "En": "Zhongli (Yilan)"
      },
      "StationPosition": {
        "PositionLat": 24.69415,
        "PositionLon": 121.77526
      },
      "StationAddress": "26844宜蘭縣五結鄉中興村台興路 10 號",
      "StationPhone": "03-9542117",
      "StationClass": "5",
      "StationURL": "http://tip.railway.gov.tw/tra-tip-web/tip/tip00H/tipH41/viewStaInfo/7170"
    },
    {
      "StationUID": "TRA-3300",
      "StationID": "3300",
      "StationName": {
        "Zh_tw": "臺中",
        "En": "Taichung"
      },
      "StationPosition": {
        "PositionLat": 24.13661,
        "PositionLon": 120.68527
      },
      "StationAddress": "40043臺中市中區綠川里臺灣大道一段 1 號",
      "StationPhone": "04-22216492",
      "StationClass": "0",
      "StationURL": "http://tip.railway.gov.tw/tra-tip-web/tip/tip00H/tipH41/viewStaInfo/3300"
    },
    {
      "StationUID": "TRA-7020",
      "StationID": "7020",
      "StationName": {
        "Zh_tw": "景美",
        "En": "Jingmei"
      },
      "StationPosition": {
        "PositionLat": 24.09039,
        "PositionLon": 121.61103
      },
      "StationAddress": "97243花蓮縣秀林鄉景美村加灣 178 之 1 號",
      "StationPhone": "03-8611237",
      "StationClass": "4",
      "StationURL": "http://tip.railway.gov.tw/tra-tip-web/tip/tip00H/tipH41/viewStaInfo/7020"
    },
    {
      "StationUID": "TRA-3380",
      "StationID": "3380",
      "StationName": {
        "Zh_tw": "大村",
        "En": "Dacun"
      },
      "StationPosition": {
        "PositionLat": 23.99003,
        "PositionLon": 120.56068
      },
      "StationAddress": "515彰化縣大村鄉過溝村福進路 100 號",
      "StationPhone": "04-8525148",
      "StationClass": "4",
      "StationURL": "http://tip.railway.gov.tw/tra-tip-web/tip/tip00H/tipH41/viewStaInfo/3380"
    },
    {
      "StationUID": "TRA-5010",
      "StationID": "5010",
      "StationName": {
        "Zh_tw": "歸來",
        "En": "Guilai"
      },
      "StationPosition": {
        "PositionLat": 22.65214,
        "PositionLon": 120.50294
      },
      "StationAddress": "90043屏東縣屏東市歸來里歸仁路 5 之 4 號",
      "StationPhone": "08-7515140",
      "StationClass": "5",
      "StationURL": "http://tip.railway.gov.tw/tra-tip-web/tip/tip00H/tipH41/viewStaInfo/5010"
    },
    {
      "StationUID": "TRA-3280",
      "StationID": "3280",
      "StationName": {
        "Zh_tw": "太原",
        "En": "Taiyuan"
      },
      "StationPosition": {
        "PositionLat": 24.16413,
        "PositionLon": 120.69981
      },
      "StationAddress": "40645臺中市北屯區北興里東光路 665 號",
      "StationPhone": "04-22313926",
      "StationClass": "4",
      "StationURL": "http://tip.railway.gov.tw/tra-tip-web/tip/tip00H/tipH41/viewStaInfo/3280"
    },
    {
      "StationUID": "TRA-6090",
      "StationID": "6090",
      "StationName": {
        "Zh_tw": "東竹",
        "En": "Dongzhu"
      },
      "StationPosition": {
        "PositionLat": 23.22612,
        "PositionLon": 121.27844
      },
      "StationAddress": "98391花蓮縣富里鄉新興村新興 26 號",
      "StationPhone": "03-8821504",
      "StationClass": "3",
      "StationURL": "http://tip.railway.gov.tw/tra-tip-web/tip/tip00H/tipH41/viewStaInfo/6090"
    },
    {
      "StationUID": "TRA-5020",
      "StationID": "5020",
      "StationName": {
        "Zh_tw": "麟洛",
        "En": "Linluo"
      },
      "StationPosition": {
        "PositionLat": 22.63478,
        "PositionLon": 120.51446
      },
      "StationAddress": "90941屏東縣麟洛鄉田道村中華路站前巷 15 號",
      "StationPhone": "08-7515140",
      "StationClass": "5",
      "StationURL": "http://tip.railway.gov.tw/tra-tip-web/tip/tip00H/tipH41/viewStaInfo/5020"
    },
    {
      "StationUID": "TRA-5000",
      "StationID": "5000",
      "StationName": {
        "Zh_tw": "屏東",
        "En": "Pingtung"
      },
      "StationPosition": {
        "PositionLat": 22.66961,
        "PositionLon": 120.48627
      },
      "StationAddress": "90078屏東縣屏東市擇仁里公勇路 62 號",
      "StationPhone": "08-7515140",
      "StationClass": "1",
      "StationURL": "http://tip.railway.gov.tw/tra-tip-web/tip/tip00H/tipH41/viewStaInfo/5000"
    },
    {
      "StationUID": "TRA-7130",
      "StationID": "7130",
      "StationName": {
        "Zh_tw": "蘇澳新",
        "En": "Su'aoxin"
      },
      "StationPosition": {
        "PositionLat": 24.60852,
        "PositionLon": 121.82719
      },
      "StationAddress": "27048宜蘭縣蘇澳鎮聖愛里中山路二段 238 之 1 號 ",
      "StationPhone": "03-9961004",
      "StationClass": "1",
      "StationURL": "http://tip.railway.gov.tw/tra-tip-web/tip/tip00H/tipH41/viewStaInfo/7130"
    },
    {
      "StationUID": "TRA-7360",
      "StationID": "7360",
      "StationName": {
        "Zh_tw": "瑞芳",
        "En": "Ruifang"
      },
      "StationPosition": {
        "PositionLat": 25.10861,
        "PositionLon": 121.80596
      },
      "StationAddress": "22441新北市瑞芳區龍潭里明燈路三段 82 號",
      "StationPhone": "02-24972033",
      "StationClass": "1",
      "StationURL": "http://tip.railway.gov.tw/tra-tip-web/tip/tip00H/tipH41/viewStaInfo/7360"
    },
    {
      "StationUID": "TRA-4100",
      "StationID": "4100",
      "StationName": {
        "Zh_tw": "南靖",
        "En": "Nanjing"
      },
      "StationPosition": {
        "PositionLat": 23.41346,
        "PositionLon": 120.38647
      },
      "StationAddress": "60859嘉義縣水上鄉三鎮村三鎮路 26 號",
      "StationPhone": "05-2601232",
      "StationClass": "4",
      "StationURL": "http://tip.railway.gov.tw/tra-tip-web/tip/tip00H/tipH41/viewStaInfo/4100"
    },
    {
      "StationUID": "TRA-7331",
      "StationID": "7331",
      "StationName": {
        "Zh_tw": "大華",
        "En": "Dahua"
      },
      "StationPosition": {
        "PositionLat": 25.04993,
        "PositionLon": 121.79751
      },
      "StationAddress": "22643新北市平溪區南山里六分 12 之 1 號",
      "StationPhone": "02-24972033",
      "StationClass": "5",
      "StationURL": "http://tip.railway.gov.tw/tra-tip-web/tip/tip00H/tipH41/viewStaInfo/7331"
    },
    {
      "StationUID": "TRA-6190",
      "StationID": "6190",
      "StationName": {
        "Zh_tw": "南平",
        "En": "Nanping"
      },
      "StationPosition": {
        "PositionLat": 23.78228,
        "PositionLon": 121.45833
      },
      "StationAddress": "97542花蓮縣鳳林鎮南平里自強路 233 號",
      "StationPhone": "03-8771597",
      "StationClass": "3",
      "StationURL": "http://tip.railway.gov.tw/tra-tip-web/tip/tip00H/tipH41/viewStaInfo/6190"
    },
    {
      "StationUID": "TRA-4360",
      "StationID": "4360",
      "StationName": {
        "Zh_tw": "內惟",
        "En": "Neiwei"
      },
      "StationPosition": {
        "PositionLat": 22.66611,
        "PositionLon": 120.28691
      },
      "StationAddress": "804高雄市鼓山區翠華路500號地下1層",
      "StationPhone": "07-5886119",
      "StationClass": "4",
      "StationURL": "http://tip.railway.gov.tw/tra-tip-web/tip/tip00H/tipH41/viewStaInfo/4360"
    },
    {
      "StationUID": "TRA-3180",
      "StationID": "3180",
      "StationName": {
        "Zh_tw": "銅鑼",
        "En": "Tongluo"
      },
      "StationPosition": {
        "PositionLat": 24.48648,
        "PositionLon": 120.78616
      },
      "StationAddress": "36641苗栗縣銅鑼鄉銅鑼村大同路 13 號",
      "StationPhone": "037-983838",
      "StationClass": "3",
      "StationURL": "http://tip.railway.gov.tw/tra-tip-web/tip/tip00H/tipH41/viewStaInfo/3180"
    },
    {
      "StationUID": "TRA-1060",
      "StationID": "1060",
      "StationName": {
        "Zh_tw": "山佳",
        "En": "Shanjia"
      },
      "StationPosition": {
        "PositionLat": 24.97233,
        "PositionLon": 121.39273
      },
      "StationAddress": "23852新北市樹林區中山里山佳街 28 號",
      "StationPhone": "02-26808874",
      "StationClass": "3",
      "StationURL": "http://tip.railway.gov.tw/tra-tip-web/tip/tip00H/tipH41/viewStaInfo/1060"
    },
    {
      "StationUID": "TRA-3400",
      "StationID": "3400",
      "StationName": {
        "Zh_tw": "永靖",
        "En": "Yongjing"
      },
      "StationPosition": {
        "PositionLat": 23.92811,
        "PositionLon": 120.57165
      },
      "StationAddress": "51241彰化縣永靖鄉崙子村永崙路 25 號",
      "StationPhone": "04-8320544",
      "StationClass": "5",
      "StationURL": "http://tip.railway.gov.tw/tra-tip-web/tip/tip00H/tipH41/viewStaInfo/3400"
    },
    {
      "StationUID": "TRA-7334",
      "StationID": "7334",
      "StationName": {
        "Zh_tw": "嶺腳",
        "En": "Lingjiao"
      },
      "StationPosition": {
        "PositionLat": 25.03021,
        "PositionLon": 121.74784
      },
      "StationAddress": "22641新北市平溪區嶺腳里嶺腳寮 22 號",
      "StationPhone": "02-24972033",
      "StationClass": "5",
      "StationURL": "http://tip.railway.gov.tw/tra-tip-web/tip/tip00H/tipH41/viewStaInfo/7334"
    },
    {
      "StationUID": "TRA-6070",
      "StationID": "6070",
      "StationName": {
        "Zh_tw": "池上",
        "En": "Chishang"
      },
      "StationPosition": {
        "PositionLat": 23.12628,
        "PositionLon": 121.21945
      },
      "StationAddress": "95862臺東縣池上鄉福文村鐵花路 30 號",
      "StationPhone": "089-862097",
      "StationClass": "3",
      "StationURL": "http://tip.railway.gov.tw/tra-tip-web/tip/tip00H/tipH41/viewStaInfo/6070"
    },
    {
      "StationUID": "TRA-7332",
      "StationID": "7332",
      "StationName": {
        "Zh_tw": "十分",
        "En": "Shifen"
      },
      "StationPosition": {
        "PositionLat": 25.04111,
        "PositionLon": 121.77514
      },
      "StationAddress": "22643新北市平溪區十分里十分街 51 號",
      "StationPhone": "02-24958307",
      "StationClass": "4",
      "StationURL": "http://tip.railway.gov.tw/tra-tip-web/tip/tip00H/tipH41/viewStaInfo/7332"
    },
    {
      "StationUID": "TRA-7333",
      "StationID": "7333",
      "StationName": {
        "Zh_tw": "望古",
        "En": "Wanggu"
      },
      "StationPosition": {
        "PositionLat": 25.03445,
        "PositionLon": 121.76349
      },
      "StationAddress": "226新北市平溪區望古里 (無站房)",
      "StationPhone": "02-24972033",
      "StationClass": "5",
      "StationURL": "http://tip.railway.gov.tw/tra-tip-web/tip/tip00H/tipH41/viewStaInfo/7333"
    },
    {
      "StationUID": "TRA-3434",
      "StationID": "3434",
      "StationName": {
        "Zh_tw": "集集",
        "En": "Jiji"
      },
      "StationPosition": {
        "PositionLat": 23.82653,
        "PositionLon": 120.78491
      },
      "StationAddress": "55241南投縣集集鎮吳厝里民生路 75 號",
      "StationPhone": "049-2762546",
      "StationClass": "5",
      "StationURL": "http://tip.railway.gov.tw/tra-tip-web/tip/tip00H/tipH41/viewStaInfo/3434"
    },
    {
      "StationUID": "TRA-1208",
      "StationID": "1208",
      "StationName": {
        "Zh_tw": "內灣",
        "En": "Neiwan"
      },
      "StationPosition": {
        "PositionLat": 24.70526,
        "PositionLon": 121.18247
      },
      "StationAddress": "31243新竹縣橫山鄉內灣村中正路 6 號",
      "StationPhone": "03-5962042",
      "StationClass": "4",
      "StationURL": "http://tip.railway.gov.tw/tra-tip-web/tip/tip00H/tipH41/viewStaInfo/1208"
    },
    {
      "StationUID": "TRA-4270",
      "StationID": "4270",
      "StationName": {
        "Zh_tw": "中洲",
        "En": "Zhongzhou"
      },
      "StationPosition": {
        "PositionLat": 22.90466,
        "PositionLon": 120.25286
      },
      "StationAddress": "71754臺南市仁德區中洲五街236號",
      "StationPhone": "06-2667191",
      "StationClass": "2",
      "StationURL": "http://tip.railway.gov.tw/tra-tip-web/tip/tip00H/tipH41/viewStaInfo/4270"
    },
    {
      "StationUID": "TRA-1001",
      "StationID": "1001",
      "StationName": {
        "Zh_tw": "臺北-環島",
        "En": "Taipei Surround Island"
      },
      "StationPosition": {
        "PositionLat": 25.04811,
        "PositionLon": 121.51793
      },
      "StationAddress": "",
      "StationPhone": "",
      "StationClass": "4",
      "StationURL": "http://tip.railway.gov.tw/tra-tip-web/tip/tip00H/tipH41/viewStaInfo/1001"
    },
    {
      "StationUID": "TRA-4400",
      "StationID": "4400",
      "StationName": {
        "Zh_tw": "高雄",
        "En": "Kaohsiung"
      },
      "StationPosition": {
        "PositionLat": 22.63801,
        "PositionLon": 120.30313
      },
      "StationAddress": "80750高雄市三民區港西里建國二路 318 號",
      "StationPhone": "07-2352376",
      "StationClass": "0",
      "StationURL": "http://tip.railway.gov.tw/tra-tip-web/tip/tip00H/tipH41/viewStaInfo/4400"
    },
    {
      "StationUID": "TRA-0920",
      "StationID": "0920",
      "StationName": {
        "Zh_tw": "八堵",
        "En": "Badu"
      },
      "StationPosition": {
        "PositionLat": 25.10843,
        "PositionLon": 121.72898
      },
      "StationAddress": "20541基隆市暖暖區八南里八堵路 142 號",
      "StationPhone": "02-24560841",
      "StationClass": "2",
      "StationURL": "http://tip.railway.gov.tw/tra-tip-web/tip/tip00H/tipH41/viewStaInfo/0920"
    },
    {
      "StationUID": "TRA-0910",
      "StationID": "0910",
      "StationName": {
        "Zh_tw": "三坑",
        "En": "Sankeng"
      },
      "StationPosition": {
        "PositionLat": 25.12305,
        "PositionLon": 121.74202
      },
      "StationAddress": "20045基隆市仁愛區德厚里龍安街 206 號",
      "StationPhone": "02-24230289",
      "StationClass": "4",
      "StationURL": "http://tip.railway.gov.tw/tra-tip-web/tip/tip00H/tipH41/viewStaInfo/0910"
    },
    {
      "StationUID": "TRA-7100",
      "StationID": "7100",
      "StationName": {
        "Zh_tw": "東澳",
        "En": "Dong'ao"
      },
      "StationPosition": {
        "PositionLat": 24.51828,
        "PositionLon": 121.83071
      },
      "StationAddress": "27291宜蘭縣南澳鄉東岳村東岳路 1 號",
      "StationPhone": "03-9986053",
      "StationClass": "2",
      "StationURL": "http://tip.railway.gov.tw/tra-tip-web/tip/tip00H/tipH41/viewStaInfo/7100"
    },
    {
      "StationUID": "TRA-7335",
      "StationID": "7335",
      "StationName": {
        "Zh_tw": "平溪",
        "En": "Pingxi"
      },
      "StationPosition": {
        "PositionLat": 25.02552,
        "PositionLon": 121.73994
      },
      "StationAddress": "22641新北市平溪區平溪里中華街 12 號",
      "StationPhone": "02-24972033",
      "StationClass": "4",
      "StationURL": "http://tip.railway.gov.tw/tra-tip-web/tip/tip00H/tipH41/viewStaInfo/7335"
    },
    {
      "StationUID": "TRA-2250",
      "StationID": "2250",
      "StationName": {
        "Zh_tw": "大肚",
        "En": "Dadu"
      },
      "StationPosition": {
        "PositionLat": 24.15401,
        "PositionLon": 120.54255
      },
      "StationAddress": "43242臺中市大肚區頂街里平和街 121 號",
      "StationPhone": "04-26992523",
      "StationClass": "3",
      "StationURL": "http://tip.railway.gov.tw/tra-tip-web/tip/tip00H/tipH41/viewStaInfo/2250"
    },
    {
      "StationUID": "TRA-4390",
      "StationID": "4390",
      "StationName": {
        "Zh_tw": "三塊厝",
        "En": "Sankuaicuo"
      },
      "StationPosition": {
        "PositionLat": 22.63901,
        "PositionLon": 120.29381
      },
      "StationAddress": "80748高雄市三民區德北里6鄰康平街1號",
      "StationPhone": "07-2856234",
      "StationClass": "4",
      "StationURL": "http://tip.railway.gov.tw/tra-tip-web/tip/tip00H/tipH41/viewStaInfo/4390"
    },
    {
      "StationUID": "TRA-3410",
      "StationID": "3410",
      "StationName": {
        "Zh_tw": "社頭",
        "En": "Shetou"
      },
      "StationPosition": {
        "PositionLat": 23.89571,
        "PositionLon": 120.58082
      },
      "StationAddress": "51155彰化縣社頭鄉廣興村社站路 10 號",
      "StationPhone": "04-8711646",
      "StationClass": "3",
      "StationURL": "http://tip.railway.gov.tw/tra-tip-web/tip/tip00H/tipH41/viewStaInfo/3410"
    },
    {
      "StationUID": "TRA-5110",
      "StationID": "5110",
      "StationName": {
        "Zh_tw": "東海",
        "En": "Donghai"
      },
      "StationPosition": {
        "PositionLat": 22.39903,
        "PositionLon": 120.57252
      },
      "StationAddress": "94042屏東縣枋寮鄉東海村西安路 92 號",
      "StationPhone": "08-8782041",
      "StationClass": "5",
      "StationURL": "http://tip.railway.gov.tw/tra-tip-web/tip/tip00H/tipH41/viewStaInfo/5110"
    },
    {
      "StationUID": "TRA-7380",
      "StationID": "7380",
      "StationName": {
        "Zh_tw": "四腳亭",
        "En": "Sijiaoting"
      },
      "StationPosition": {
        "PositionLat": 25.10281,
        "PositionLon": 121.76192
      },
      "StationAddress": "22449新北市瑞芳區吉慶里中央路 65 號",
      "StationPhone": "02-24579346",
      "StationClass": "3",
      "StationURL": "http://tip.railway.gov.tw/tra-tip-web/tip/tip00H/tipH41/viewStaInfo/7380"
    },
    {
      "StationUID": "TRA-2220",
      "StationID": "2220",
      "StationName": {
        "Zh_tw": "清水",
        "En": "Qingshui"
      },
      "StationPosition": {
        "PositionLat": 24.26364,
        "PositionLon": 120.56918
      },
      "StationAddress": "43653臺中市清水區南社里中正街 115 號",
      "StationPhone": "04-26222021",
      "StationClass": "3",
      "StationURL": "http://tip.railway.gov.tw/tra-tip-web/tip/tip00H/tipH41/viewStaInfo/2220"
    },
    {
      "StationUID": "TRA-5030",
      "StationID": "5030",
      "StationName": {
        "Zh_tw": "西勢",
        "En": "Xishi"
      },
      "StationPosition": {
        "PositionLat": 22.61661,
        "PositionLon": 120.52677
      },
      "StationAddress": "91142屏東縣竹田鄉西勢村西豐路 2 號",
      "StationPhone": "08-7784521",
      "StationClass": "3",
      "StationURL": "http://tip.railway.gov.tw/tra-tip-web/tip/tip00H/tipH41/viewStaInfo/5030"
    },
    {
      "StationUID": "TRA-4170",
      "StationID": "4170",
      "StationName": {
        "Zh_tw": "善化",
        "En": "Shanhua"
      },
      "StationPosition": {
        "PositionLat": 23.13333,
        "PositionLon": 120.30653
      },
      "StationAddress": "74154臺南市善化區光文里中山路 1 號",
      "StationPhone": "06-5837301",
      "StationClass": "2",
      "StationURL": "http://tip.railway.gov.tw/tra-tip-web/tip/tip00H/tipH41/viewStaInfo/4170"
    },
    {
      "StationUID": "TRA-3436",
      "StationID": "3436",
      "StationName": {
        "Zh_tw": "車埕",
        "En": "Checheng"
      },
      "StationPosition": {
        "PositionLat": 23.83263,
        "PositionLon": 120.86572
      },
      "StationAddress": "55345南投縣水里鄉車埕村民權巷 2 號",
      "StationPhone": "049-2774749",
      "StationClass": "5",
      "StationURL": "http://tip.railway.gov.tw/tra-tip-web/tip/tip00H/tipH41/viewStaInfo/3436"
    },
    {
      "StationUID": "TRA-3460",
      "StationID": "3460",
      "StationName": {
        "Zh_tw": "石榴",
        "En": "Shiliu"
      },
      "StationPosition": {
        "PositionLat": 23.73167,
        "PositionLon": 120.57998
      },
      "StationAddress": "64071雲林縣斗六市榴北里文明路 31 號",
      "StationPhone": "05-5332900",
      "StationClass": "5",
      "StationURL": "http://tip.railway.gov.tw/tra-tip-web/tip/tip00H/tipH41/viewStaInfo/3460"
    },
    {
      "StationUID": "TRA-2230",
      "StationID": "2230",
      "StationName": {
        "Zh_tw": "沙鹿",
        "En": "Shalu"
      },
      "StationPosition": {
        "PositionLat": 24.23702,
        "PositionLon": 120.55752
      },
      "StationAddress": "43353臺中市沙鹿區沙鹿里中正街 94 號",
      "StationPhone": "04-26625057",
      "StationClass": "2",
      "StationURL": "http://tip.railway.gov.tw/tra-tip-web/tip/tip00H/tipH41/viewStaInfo/2230"
    },
    {
      "StationUID": "TRA-6230",
      "StationID": "6230",
      "StationName": {
        "Zh_tw": "平和",
        "En": "Pinghe"
      },
      "StationPosition": {
        "PositionLat": 23.88275,
        "PositionLon": 121.52036
      },
      "StationAddress": "97445花蓮縣壽豐鄉平和村平和路 1 號",
      "StationPhone": "03-8653706",
      "StationClass": "5",
      "StationURL": "http://tip.railway.gov.tw/tra-tip-web/tip/tip00H/tipH41/viewStaInfo/6230"
    },
    {
      "StationUID": "TRA-2170",
      "StationID": "2170",
      "StationName": {
        "Zh_tw": "通霄",
        "En": "Tongxiao"
      },
      "StationPosition": {
        "PositionLat": 24.49141,
        "PositionLon": 120.67843
      },
      "StationAddress": "35741苗栗縣通霄鎮通西里中正路 109 號",
      "StationPhone": "037-758300",
      "StationClass": "3",
      "StationURL": "http://tip.railway.gov.tw/tra-tip-web/tip/tip00H/tipH41/viewStaInfo/2170"
    },
    {
      "StationUID": "TRA-5210",
      "StationID": "5210",
      "StationName": {
        "Zh_tw": "金崙",
        "En": "Jinlun"
      },
      "StationPosition": {
        "PositionLat": 22.53161,
        "PositionLon": 120.96721
      },
      "StationAddress": "96344臺東縣太麻里鄉金崙村金崙 47 之 17 號",
      "StationPhone": "089-771068",
      "StationClass": "3",
      "StationURL": "http://tip.railway.gov.tw/tra-tip-web/tip/tip00H/tipH41/viewStaInfo/5210"
    },
    {
      "StationUID": "TRA-4140",
      "StationID": "4140",
      "StationName": {
        "Zh_tw": "林鳳營",
        "En": "Linfengying"
      },
      "StationPosition": {
        "PositionLat": 23.24259,
        "PositionLon": 120.32107
      },
      "StationAddress": "73444臺南市六甲區中社里林鳳營 16 號",
      "StationPhone": "06-6986086",
      "StationClass": "4",
      "StationURL": "http://tip.railway.gov.tw/tra-tip-web/tip/tip00H/tipH41/viewStaInfo/4140"
    },
    {
      "StationUID": "TRA-6250",
      "StationID": "6250",
      "StationName": {
        "Zh_tw": "吉安",
        "En": "Ji'an"
      },
      "StationPosition": {
        "PositionLat": 23.96825,
        "PositionLon": 121.58261
      },
      "StationAddress": "97350花蓮縣吉安鄉南昌村南昌路 200 號",
      "StationPhone": "03-8539423",
      "StationClass": "3",
      "StationURL": "http://tip.railway.gov.tw/tra-tip-web/tip/tip00H/tipH41/viewStaInfo/6250"
    },
    {
      "StationUID": "TRA-7180",
      "StationID": "7180",
      "StationName": {
        "Zh_tw": "二結",
        "En": "Erjie"
      },
      "StationPosition": {
        "PositionLat": 24.70529,
        "PositionLon": 121.77411
      },
      "StationAddress": "26843宜蘭縣五結鄉五結中路三段658巷8號",
      "StationPhone": "03-9650304",
      "StationClass": "3",
      "StationURL": "http://tip.railway.gov.tw/tra-tip-web/tip/tip00H/tipH41/viewStaInfo/7180"
    },
    {
      "StationUID": "TRA-1192",
      "StationID": "1192",
      "StationName": {
        "Zh_tw": "新莊",
        "En": "Xinzhuang"
      },
      "StationPosition": {
        "PositionLat": 24.78819,
        "PositionLon": 121.02182
      },
      "StationAddress": "30073新竹市 東區新莊里關東路 310 號",
      "StationPhone": "03-5237441",
      "StationClass": "4",
      "StationURL": "http://tip.railway.gov.tw/tra-tip-web/tip/tip00H/tipH41/viewStaInfo/1192"
    },
    {
      "StationUID": "TRA-4271",
      "StationID": "4271",
      "StationName": {
        "Zh_tw": "長榮大學",
        "En": "Chang Jung Christian University"
      },
      "StationPosition": {
        "PositionLat": 22.90735,
        "PositionLon": 120.27274
      },
      "StationAddress": "71150臺南市歸仁區大潭里長大路15 號",
      "StationPhone": "06-2782615",
      "StationClass": "4",
      "StationURL": "http://tip.railway.gov.tw/tra-tip-web/tip/tip00H/tipH41/viewStaInfo/4271"
    },
    {
      "StationUID": "TRA-1110",
      "StationID": "1110",
      "StationName": {
        "Zh_tw": "埔心",
        "En": "Puxin"
      },
      "StationPosition": {
        "PositionLat": 24.91945,
        "PositionLon": 121.18366
      },
      "StationAddress": "32653桃園市楊梅區埔心里永美路 208 號",
      "StationPhone": "03-4827100",
      "StationClass": "3",
      "StationURL": "http://tip.railway.gov.tw/tra-tip-web/tip/tip00H/tipH41/viewStaInfo/1110"
    },
    {
      "StationUID": "TRA-2210",
      "StationID": "2210",
      "StationName": {
        "Zh_tw": "臺中港",
        "En": "Taichung Port"
      },
      "StationPosition": {
        "PositionLat": 24.30441,
        "PositionLon": 120.60231
      },
      "StationAddress": "43642臺中市清水區頂湳里甲南路 2 號",
      "StationPhone": "04-26225374",
      "StationClass": "2",
      "StationURL": "http://tip.railway.gov.tw/tra-tip-web/tip/tip00H/tipH41/viewStaInfo/2210"
    },
    {
      "StationUID": "TRA-0950",
      "StationID": "0950",
      "StationName": {
        "Zh_tw": "五堵",
        "En": "Wudu"
      },
      "StationPosition": {
        "PositionLat": 25.07784,
        "PositionLon": 121.66764
      },
      "StationAddress": "22178新北市汐止區長安里長安路 17 號",
      "StationPhone": "02-86476200",
      "StationClass": "4",
      "StationURL": "http://tip.railway.gov.tw/tra-tip-web/tip/tip00H/tipH41/viewStaInfo/0950"
    },
    {
      "StationUID": "TRA-4110",
      "StationID": "4110",
      "StationName": {
        "Zh_tw": "後壁",
        "En": "Houbi"
      },
      "StationPosition": {
        "PositionLat": 23.36626,
        "PositionLon": 120.36058
      },
      "StationAddress": "73143臺南市後壁區後壁里後壁 77 號",
      "StationPhone": "06-6872055",
      "StationClass": "4",
      "StationURL": "http://tip.railway.gov.tw/tra-tip-web/tip/tip00H/tipH41/viewStaInfo/4110"
    },
    {
      "StationUID": "TRA-5230",
      "StationID": "5230",
      "StationName": {
        "Zh_tw": "知本",
        "En": "Zhiben"
      },
      "StationPosition": {
        "PositionLat": 22.71008,
        "PositionLon": 121.06128
      },
      "StationAddress": "95093臺東縣臺東市知本里知本路二段 900 巷 85 號",
      "StationPhone": "089-514482",
      "StationClass": "3",
      "StationURL": "http://tip.railway.gov.tw/tra-tip-web/tip/tip00H/tipH41/viewStaInfo/5230"
    },
    {
      "StationUID": "TRA-5140",
      "StationID": "5140",
      "StationName": {
        "Zh_tw": "內獅",
        "En": "Neishi"
      },
      "StationPosition": {
        "PositionLat": 22.30615,
        "PositionLon": 120.64322
      },
      "StationAddress": "94150屏東縣枋山鄉加祿村南和 43 號",
      "StationPhone": "08-8720791",
      "StationClass": "5",
      "StationURL": "http://tip.railway.gov.tw/tra-tip-web/tip/tip00H/tipH41/viewStaInfo/5140"
    },
    {
      "StationUID": "TRA-3320",
      "StationID": "3320",
      "StationName": {
        "Zh_tw": "大慶",
        "En": "Daqing"
      },
      "StationPosition": {
        "PositionLat": 24.11891,
        "PositionLon": 120.64791
      },
      "StationAddress": "40242臺中市南區樹德里7鄰大慶街2段130號\t",
      "StationPhone": "04-22637940",
      "StationClass": "4",
      "StationURL": "http://tip.railway.gov.tw/tra-tip-web/tip/tip00H/tipH41/viewStaInfo/3320"
    },
    {
      "StationUID": "TRA-5050",
      "StationID": "5050",
      "StationName": {
        "Zh_tw": "潮州",
        "En": "Chaozhou"
      },
      "StationPosition": {
        "PositionLat": 22.55007,
        "PositionLon": 120.53662
      },
      "StationAddress": "92045屏東縣潮州鎮新榮里信義路 111 號",
      "StationPhone": "08-7882739",
      "StationClass": "1",
      "StationURL": "http://tip.railway.gov.tw/tra-tip-web/tip/tip00H/tipH41/viewStaInfo/5050"
    },
    {
      "StationUID": "TRA-6120",
      "StationID": "6120",
      "StationName": {
        "Zh_tw": "三民",
        "En": "Sanmin"
      },
      "StationPosition": {
        "PositionLat": 23.42463,
        "PositionLon": 121.34561
      },
      "StationAddress": "98191花蓮縣玉里鎮三民里三民 10 號",
      "StationPhone": "03-8841847",
      "StationClass": "3",
      "StationURL": "http://tip.railway.gov.tw/tra-tip-web/tip/tip00H/tipH41/viewStaInfo/6120"
    },
    {
      "StationUID": "TRA-2120",
      "StationID": "2120",
      "StationName": {
        "Zh_tw": "大山",
        "En": "Dashan"
      },
      "StationPosition": {
        "PositionLat": 24.64565,
        "PositionLon": 120.80376
      },
      "StationAddress": "35658苗栗縣後龍鎮大山里明山路 180 號",
      "StationPhone": "037-728616",
      "StationClass": "4",
      "StationURL": "http://tip.railway.gov.tw/tra-tip-web/tip/tip00H/tipH41/viewStaInfo/2120"
    },
    {
      "StationUID": "TRA-6010",
      "StationID": "6010",
      "StationName": {
        "Zh_tw": "山里",
        "En": "Shanli"
      },
      "StationPosition": {
        "PositionLat": 22.86194,
        "PositionLon": 121.13778
      },
      "StationAddress": "95443臺東縣卑南鄉嘉豐村山里路 108 號",
      "StationPhone": "089-572370",
      "StationClass": "3",
      "StationURL": "http://tip.railway.gov.tw/tra-tip-web/tip/tip00H/tipH41/viewStaInfo/6010"
    },
    {
      "StationUID": "TRA-0990",
      "StationID": "0990",
      "StationName": {
        "Zh_tw": "松山",
        "En": "Songshan"
      },
      "StationPosition": {
        "PositionLat": 25.04936,
        "PositionLon": 121.57807
      },
      "StationAddress": "11088臺北市信義區永吉里松山路 11 號",
      "StationPhone": "02-27673819",
      "StationClass": "1",
      "StationURL": "http://tip.railway.gov.tw/tra-tip-web/tip/tip00H/tipH41/viewStaInfo/0990"
    },
    {
      "StationUID": "TRA-7060",
      "StationID": "7060",
      "StationName": {
        "Zh_tw": "和平",
        "En": "Heping"
      },
      "StationPosition": {
        "PositionLat": 24.29825,
        "PositionLon": 121.75322
      },
      "StationAddress": "97291花蓮縣秀林鄉和平村和平 276 號",
      "StationPhone": "03-8681009",
      "StationClass": "2",
      "StationURL": "http://tip.railway.gov.tw/tra-tip-web/tip/tip00H/tipH41/viewStaInfo/7060"
    },
    {
      "StationUID": "TRA-7250",
      "StationID": "7250",
      "StationName": {
        "Zh_tw": "龜山",
        "En": "Guishan"
      },
      "StationPosition": {
        "PositionLat": 24.90481,
        "PositionLon": 121.86886
      },
      "StationAddress": "26144宜蘭縣頭城鎮更新里濱海路三段 261 號",
      "StationPhone": "03-9770351",
      "StationClass": "4",
      "StationURL": "http://tip.railway.gov.tw/tra-tip-web/tip/tip00H/tipH41/viewStaInfo/7250"
    },
    {
      "StationUID": "TRA-2200",
      "StationID": "2200",
      "StationName": {
        "Zh_tw": "大甲",
        "En": "Dajia"
      },
      "StationPosition": {
        "PositionLat": 24.34455,
        "PositionLon": 120.62703
      },
      "StationAddress": "43744臺中市大甲區大甲里中山路一段 828 號",
      "StationPhone": "04-26872022",
      "StationClass": "2",
      "StationURL": "http://tip.railway.gov.tw/tra-tip-web/tip/tip00H/tipH41/viewStaInfo/2200"
    },
    {
      "StationUID": "TRA-4160",
      "StationID": "4160",
      "StationName": {
        "Zh_tw": "拔林",
        "En": "Balin"
      },
      "StationPosition": {
        "PositionLat": 23.17287,
        "PositionLon": 120.32117
      },
      "StationAddress": "72044臺南市官田區拔林里拔子林 83 之 1 號",
      "StationPhone": "06-5791664",
      "StationClass": "5",
      "StationURL": "http://tip.railway.gov.tw/tra-tip-web/tip/tip00H/tipH41/viewStaInfo/4160"
    },
    {
      "StationUID": "TRA-1240",
      "StationID": "1240",
      "StationName": {
        "Zh_tw": "崎頂",
        "En": "Qiding"
      },
      "StationPosition": {
        "PositionLat": 24.72281,
        "PositionLon": 120.87213
      },
      "StationAddress": "35054苗栗縣竹南鎮崎頂里北戶 55 號",
      "StationPhone": "037-472030",
      "StationClass": "5",
      "StationURL": "http://tip.railway.gov.tw/tra-tip-web/tip/tip00H/tipH41/viewStaInfo/1240"
    },
    {
      "StationUID": "TRA-7050",
      "StationID": "7050",
      "StationName": {
        "Zh_tw": "和仁",
        "En": "Heren"
      },
      "StationPosition": {
        "PositionLat": 24.24219,
        "PositionLon": 121.71192
      },
      "StationAddress": "97291花蓮縣秀林鄉和平村和仁 71 號",
      "StationPhone": "03-8681221",
      "StationClass": "3",
      "StationURL": "http://tip.railway.gov.tw/tra-tip-web/tip/tip00H/tipH41/viewStaInfo/7050"
    },
    {
      "StationUID": "TRA-3420",
      "StationID": "3420",
      "StationName": {
        "Zh_tw": "田中",
        "En": "Tianzhong"
      },
      "StationPosition": {
        "PositionLat": 23.85827,
        "PositionLon": 120.59121
      },
      "StationAddress": "52042彰化縣田中鎮中路里中州路一段 1 號",
      "StationPhone": "04-8742142",
      "StationClass": "2",
      "StationURL": "http://tip.railway.gov.tw/tra-tip-web/tip/tip00H/tipH41/viewStaInfo/3420"
    },
    {
      "StationUID": "TRA-7280",
      "StationID": "7280",
      "StationName": {
        "Zh_tw": "石城",
        "En": "Shicheng"
      },
      "StationPosition": {
        "PositionLat": 24.97842,
        "PositionLon": 121.94524
      },
      "StationAddress": "26145宜蘭縣頭城鎮石城里濱海路七段 230 號",
      "StationPhone": "03-9771429",
      "StationClass": "5",
      "StationURL": "http://tip.railway.gov.tw/tra-tip-web/tip/tip00H/tipH41/viewStaInfo/7280"
    },
    {
      "StationUID": "TRA-0900",
      "StationID": "0900",
      "StationName": {
        "Zh_tw": "基隆",
        "En": "Keelung"
      },
      "StationPosition": {
        "PositionLat": 25.13401,
        "PositionLon": 121.74013
      },
      "StationAddress": "104基隆市中山區民治里1鄰中山一路16之 1號",
      "StationPhone": "02-24263743",
      "StationClass": "1",
      "StationURL": "http://tip.railway.gov.tw/tra-tip-web/tip/tip00H/tipH41/viewStaInfo/0900"
    },
    {
      "StationUID": "TRA-7210",
      "StationID": "7210",
      "StationName": {
        "Zh_tw": "礁溪",
        "En": "Jiaoxi"
      },
      "StationPosition": {
        "PositionLat": 24.82705,
        "PositionLon": 121.77523
      },
      "StationAddress": "26248宜蘭縣礁溪鄉德陽村溫泉路 1 號",
      "StationPhone": "03-9886940",
      "StationClass": "3",
      "StationURL": "http://tip.railway.gov.tw/tra-tip-web/tip/tip00H/tipH41/viewStaInfo/7210"
    },
    {
      "StationUID": "TRA-1130",
      "StationID": "1130",
      "StationName": {
        "Zh_tw": "富岡",
        "En": "Fugang"
      },
      "StationPosition": {
        "PositionLat": 24.93462,
        "PositionLon": 121.08313
      },
      "StationAddress": "32649桃園市楊梅區富岡里成功路 37 號",
      "StationPhone": "03-4723754",
      "StationClass": "3",
      "StationURL": "http://tip.railway.gov.tw/tra-tip-web/tip/tip00H/tipH41/viewStaInfo/1130"
    },
    {
      "StationUID": "TRA-7260",
      "StationID": "7260",
      "StationName": {
        "Zh_tw": "大溪",
        "En": "Daxi"
      },
      "StationPosition": {
        "PositionLat": 24.93834,
        "PositionLon": 121.88987
      },
      "StationAddress": "26145宜蘭縣頭城鎮大溪里濱海路五段 63 號",
      "StationPhone": "03-9771429",
      "StationClass": "5",
      "StationURL": "http://tip.railway.gov.tw/tra-tip-web/tip/tip00H/tipH41/viewStaInfo/7260"
    },
    {
      "StationUID": "TRA-7040",
      "StationID": "7040",
      "StationName": {
        "Zh_tw": "崇德",
        "En": "Chongde"
      },
      "StationPosition": {
        "PositionLat": 24.17111,
        "PositionLon": 121.65555
      },
      "StationAddress": "97253花蓮縣秀林鄉崇德村海濱路 96 號",
      "StationPhone": "03-8621365",
      "StationClass": "3",
      "StationURL": "http://tip.railway.gov.tw/tra-tip-web/tip/tip00H/tipH41/viewStaInfo/7040"
    },
    {
      "StationUID": "TRA-3432",
      "StationID": "3432",
      "StationName": {
        "Zh_tw": "濁水",
        "En": "Zhuoshui"
      },
      "StationPosition": {
        "PositionLat": 23.83467,
        "PositionLon": 120.70467
      },
      "StationAddress": "55141南投縣名間鄉濁水村車站路 15 號",
      "StationPhone": "049-2735850",
      "StationClass": "4",
      "StationURL": "http://tip.railway.gov.tw/tra-tip-web/tip/tip00H/tipH41/viewStaInfo/3432"
    },
    {
      "StationUID": "TRA-5100",
      "StationID": "5100",
      "StationName": {
        "Zh_tw": "佳冬",
        "En": "Jiadong"
      },
      "StationPosition": {
        "PositionLat": 22.41416,
        "PositionLon": 120.54782
      },
      "StationAddress": "931屏東縣佳冬鄉六根村復興路21號",
      "StationPhone": "08-8662939",
      "StationClass": "4",
      "StationURL": "http://tip.railway.gov.tw/tra-tip-web/tip/tip00H/tipH41/viewStaInfo/5100"
    },
    {
      "StationUID": "TRA-1207",
      "StationID": "1207",
      "StationName": {
        "Zh_tw": "富貴",
        "En": "Fugui"
      },
      "StationPosition": {
        "PositionLat": 24.71553,
        "PositionLon": 121.16729
      },
      "StationAddress": "312新竹縣橫山鄉豐田村中山街一段 (無站房)",
      "StationPhone": "03-5962042",
      "StationClass": "5",
      "StationURL": "http://tip.railway.gov.tw/tra-tip-web/tip/tip00H/tipH41/viewStaInfo/1207"
    },
    {
      "StationUID": "TRA-4090",
      "StationID": "4090",
      "StationName": {
        "Zh_tw": "水上",
        "En": "Shuishang"
      },
      "StationPosition": {
        "PositionLat": 23.43389,
        "PositionLon": 120.39961
      },
      "StationAddress": "60841嘉義縣水上鄉下寮村鴿溪寮 49 號",
      "StationPhone": "05-2228904",
      "StationClass": "4",
      "StationURL": "http://tip.railway.gov.tw/tra-tip-web/tip/tip00H/tipH41/viewStaInfo/4090"
    },
    {
      "StationUID": "TRA-1205",
      "StationID": "1205",
      "StationName": {
        "Zh_tw": "九讚頭",
        "En": "Jiuzantou"
      },
      "StationPosition": {
        "PositionLat": 24.72068,
        "PositionLon": 121.13621
      },
      "StationAddress": "31242新竹縣橫山鄉大肚村中豐路二段 286 巷 29 號",
      "StationPhone": "03-5962042",
      "StationClass": "4",
      "StationURL": "http://tip.railway.gov.tw/tra-tip-web/tip/tip00H/tipH41/viewStaInfo/1205"
    },
    {
      "StationUID": "TRA-1090",
      "StationID": "1090",
      "StationName": {
        "Zh_tw": "內壢",
        "En": "Neili"
      },
      "StationPosition": {
        "PositionLat": 24.97287,
        "PositionLon": 121.25814
      },
      "StationAddress": "32072桃園市中壢區中原里中華路一段 267 號",
      "StationPhone": "03-4559725",
      "StationClass": "3",
      "StationURL": "http://tip.railway.gov.tw/tra-tip-web/tip/tip00H/tipH41/viewStaInfo/1090"
    },
    {
      "StationUID": "TRA-7200",
      "StationID": "7200",
      "StationName": {
        "Zh_tw": "四城",
        "En": "Sicheng"
      },
      "StationPosition": {
        "PositionLat": 24.78684,
        "PositionLon": 121.76268
      },
      "StationAddress": "26245宜蘭縣礁溪鄉吳沙村站前路 24 號",
      "StationPhone": "03-9282449",
      "StationClass": "4",
      "StationURL": "http://tip.railway.gov.tw/tra-tip-web/tip/tip00H/tipH41/viewStaInfo/7200"
    },
    {
      "StationUID": "TRA-3190",
      "StationID": "3190",
      "StationName": {
        "Zh_tw": "三義",
        "En": "Sanyi"
      },
      "StationPosition": {
        "PositionLat": 24.42066,
        "PositionLon": 120.77393
      },
      "StationAddress": "36741苗栗縣三義鄉雙湖村雙湖 90 號",
      "StationPhone": "037-874763",
      "StationClass": "3",
      "StationURL": "http://tip.railway.gov.tw/tra-tip-web/tip/tip00H/tipH41/viewStaInfo/3190"
    },
    {
      "StationUID": "TRA-4350",
      "StationID": "4350",
      "StationName": {
        "Zh_tw": "左營",
        "En": "Zuoying"
      },
      "StationPosition": {
        "PositionLat": 22.67441,
        "PositionLon": 120.29441
      },
      "StationAddress": "81351高雄市左營區翠華路1050號地下1層",
      "StationPhone": "07-5887835",
      "StationClass": "4",
      "StationURL": "http://tip.railway.gov.tw/tra-tip-web/tip/tip00H/tipH41/viewStaInfo/4350"
    },
    {
      "StationUID": "TRA-4130",
      "StationID": "4130",
      "StationName": {
        "Zh_tw": "柳營",
        "En": "Liuying"
      },
      "StationPosition": {
        "PositionLat": 23.27762,
        "PositionLon": 120.32252
      },
      "StationAddress": "73657臺南市柳營區東昇里建國路 1 號",
      "StationPhone": "06-6226450",
      "StationClass": "4",
      "StationURL": "http://tip.railway.gov.tw/tra-tip-web/tip/tip00H/tipH41/viewStaInfo/4130"
    },
    {
      "StationUID": "TRA-5120",
      "StationID": "5120",
      "StationName": {
        "Zh_tw": "枋寮",
        "En": "Fangliao"
      },
      "StationPosition": {
        "PositionLat": 22.36786,
        "PositionLon": 120.59501
      },
      "StationAddress": "94043屏東縣枋寮鄉枋寮村儲運路 18 號",
      "StationPhone": "08-8782041",
      "StationClass": "3",
      "StationURL": "http://tip.railway.gov.tw/tra-tip-web/tip/tip00H/tipH41/viewStaInfo/5120"
    },